[
    {
        "id": 16001,
        "skyddsrumsnr": "121569-2",
        "gatuadress": "Krysshammarvägen 18",
        "kommunnamn": "Solna",
        "antalplatser": 50,
        "latitude": 17.99417640257726,
        "longitude": 59.34983098641302
    },
    {
        "id": 16002,
        "skyddsrumsnr": "121570-8",
        "gatuadress": "Ekensbergsvägen 87",
        "kommunnamn": "Solna",
        "antalplatser": 70,
        "latitude": 17.987858892762336,
        "longitude": 59.36163088077427
    },
    {
        "id": 16003,
        "skyddsrumsnr": "121571-3",
        "gatuadress": "Ekensbergsvägen 85",
        "kommunnamn": "Solna",
        "antalplatser": 75,
        "latitude": 17.98964495926049,
        "longitude": 59.361724710677166
    },
    {
        "id": 16004,
        "skyddsrumsnr": "121572-9",
        "gatuadress": "Höstvägen 3",
        "kommunnamn": "Solna",
        "antalplatser": 112,
        "latitude": 17.990829610880965,
        "longitude": 59.36118532562388
    },
    {
        "id": 16005,
        "skyddsrumsnr": "121573-4",
        "gatuadress": "Virebergsvägen 8",
        "kommunnamn": "Solna",
        "antalplatser": 100,
        "latitude": 17.990326896270663,
        "longitude": 59.36087336474917
    },
    {
        "id": 16006,
        "skyddsrumsnr": "121575-5",
        "gatuadress": "Sommarvägen 2",
        "kommunnamn": "Solna",
        "antalplatser": 85,
        "latitude": 17.98977898689527,
        "longitude": 59.36104768422161
    },
    {
        "id": 16007,
        "skyddsrumsnr": "121576-0",
        "gatuadress": "Hagavägen 4",
        "kommunnamn": "Solna",
        "antalplatser": 182,
        "latitude": 18.02264934400261,
        "longitude": 59.36251799769263
    },
    {
        "id": 16008,
        "skyddsrumsnr": "121582-3",
        "gatuadress": "Pyramidvägen 9 B-c",
        "kommunnamn": "Solna",
        "antalplatser": 142,
        "latitude": 18.005085386654834,
        "longitude": 59.36792942661007
    },
    {
        "id": 16009,
        "skyddsrumsnr": "121583-9",
        "gatuadress": "Pyramidvägen 9 A",
        "kommunnamn": "Solna",
        "antalplatser": 104,
        "latitude": 18.005085386654834,
        "longitude": 59.36792942661007
    },
    {
        "id": 16010,
        "skyddsrumsnr": "121584-4",
        "gatuadress": "Pyramidvägen 7",
        "kommunnamn": "Solna",
        "antalplatser": 163,
        "latitude": 18.00613490151187,
        "longitude": 59.367653614380956
    },
    {
        "id": 16011,
        "skyddsrumsnr": "121586-5",
        "gatuadress": "Råsundavägen 154",
        "kommunnamn": "Solna",
        "antalplatser": 84,
        "latitude": 17.982221173896136,
        "longitude": 59.36598342727336
    },
    {
        "id": 16012,
        "skyddsrumsnr": "121587-0",
        "gatuadress": "Råsundavägen 156",
        "kommunnamn": "Solna",
        "antalplatser": 99,
        "latitude": 17.98171452794085,
        "longitude": 59.36562659346651
    },
    {
        "id": 16013,
        "skyddsrumsnr": "121588-6",
        "gatuadress": "Råsundavägen 158",
        "kommunnamn": "Solna",
        "antalplatser": 80,
        "latitude": 17.98115518686696,
        "longitude": 59.36527096315573
    },
    {
        "id": 16014,
        "skyddsrumsnr": "121589-1",
        "gatuadress": "Råsundavägen 152",
        "kommunnamn": "Solna",
        "antalplatser": 80,
        "latitude": 17.982755091830438,
        "longitude": 59.36624977522317
    },
    {
        "id": 16015,
        "skyddsrumsnr": "121593-3",
        "gatuadress": "Gustafsvägen 11 B",
        "kommunnamn": "Solna",
        "antalplatser": 50,
        "latitude": 18.004061970162518,
        "longitude": 59.36452033782998
    },
    {
        "id": 16016,
        "skyddsrumsnr": "121594-9",
        "gatuadress": "Södra Långgatan 25",
        "kommunnamn": "Solna",
        "antalplatser": 93,
        "latitude": 18.004786330783702,
        "longitude": 59.36435087613924
    },
    {
        "id": 16017,
        "skyddsrumsnr": "121595-4",
        "gatuadress": "Wiboms Väg 17",
        "kommunnamn": "Solna",
        "antalplatser": 166,
        "latitude": 17.996600589532136,
        "longitude": 59.346791882239984
    },
    {
        "id": 16018,
        "skyddsrumsnr": "121597-5",
        "gatuadress": "Wiboms Väg 27",
        "kommunnamn": "Solna",
        "antalplatser": 173,
        "latitude": 17.997531677697243,
        "longitude": 59.346177383106
    },
    {
        "id": 16019,
        "skyddsrumsnr": "121598-0",
        "gatuadress": "Råsundavägen 13",
        "kommunnamn": "Solna",
        "antalplatser": 192,
        "latitude": 18.020181984644825,
        "longitude": 59.36307842495183
    },
    {
        "id": 16020,
        "skyddsrumsnr": "121599-6",
        "gatuadress": "Råsundavägen 15",
        "kommunnamn": "Solna",
        "antalplatser": 194,
        "latitude": 18.01946732451602,
        "longitude": 59.363157887699174
    },
    {
        "id": 16021,
        "skyddsrumsnr": "121601-5",
        "gatuadress": "Råsundavägen 17-19",
        "kommunnamn": "Solna",
        "antalplatser": 237,
        "latitude": 18.018754255125693,
        "longitude": 59.3632552819009
    },
    {
        "id": 16022,
        "skyddsrumsnr": "121602-0",
        "gatuadress": "Södra Långgatan 35",
        "kommunnamn": "Solna",
        "antalplatser": 48,
        "latitude": 18.00311769910875,
        "longitude": 59.36518909683072
    },
    {
        "id": 16023,
        "skyddsrumsnr": "121603-6",
        "gatuadress": "Södra Långgatan 33",
        "kommunnamn": "Solna",
        "antalplatser": 30,
        "latitude": 18.003547386486943,
        "longitude": 59.36507136229913
    },
    {
        "id": 16024,
        "skyddsrumsnr": "121604-1",
        "gatuadress": "Gustafsvägen 14",
        "kommunnamn": "Solna",
        "antalplatser": 57,
        "latitude": 18.003353704168134,
        "longitude": 59.36447375871707
    },
    {
        "id": 16025,
        "skyddsrumsnr": "121605-7",
        "gatuadress": "Gustafsvägen 10-12",
        "kommunnamn": "Solna",
        "antalplatser": 80,
        "latitude": 18.0038622608703,
        "longitude": 59.36465074598568
    },
    {
        "id": 16026,
        "skyddsrumsnr": "121607-8",
        "gatuadress": "Råsundavägen 1-3",
        "kommunnamn": "Solna",
        "antalplatser": 80,
        "latitude": 18.02333921913484,
        "longitude": 59.362951303007534
    },
    {
        "id": 16027,
        "skyddsrumsnr": "121608-3",
        "gatuadress": "Råsundavägen 1-3",
        "kommunnamn": "Solna",
        "antalplatser": 135,
        "latitude": 18.02333921913484,
        "longitude": 59.362951303007534
    },
    {
        "id": 16028,
        "skyddsrumsnr": "121615-1",
        "gatuadress": "Vasavägen 29",
        "kommunnamn": "Solna",
        "antalplatser": 29,
        "latitude": 18.000297133478487,
        "longitude": 59.36534391877943
    },
    {
        "id": 16029,
        "skyddsrumsnr": "121616-7",
        "gatuadress": "Vasavägen 11",
        "kommunnamn": "Solna",
        "antalplatser": 33,
        "latitude": 18.003783734996496,
        "longitude": 59.3637629342994
    },
    {
        "id": 16030,
        "skyddsrumsnr": "121619-3",
        "gatuadress": "Hagavägen 18",
        "kommunnamn": "Solna",
        "antalplatser": 50,
        "latitude": 18.019320549309516,
        "longitude": 59.36210092376374
    },
    {
        "id": 16031,
        "skyddsrumsnr": "121620-9",
        "gatuadress": "Slottsvägen 9",
        "kommunnamn": "Solna",
        "antalplatser": 50,
        "latitude": 18.01876961552954,
        "longitude": 59.36204179758056
    },
    {
        "id": 16032,
        "skyddsrumsnr": "121621-4",
        "gatuadress": "Carl Thunbergs Väg 7",
        "kommunnamn": "Solna",
        "antalplatser": 72,
        "latitude": 18.01901784735036,
        "longitude": 59.36265609088568
    },
    {
        "id": 16033,
        "skyddsrumsnr": "121623-5",
        "gatuadress": "Slottsvägen 5",
        "kommunnamn": "Solna",
        "antalplatser": 78,
        "latitude": 18.01901784735036,
        "longitude": 59.36265609088568
    },
    {
        "id": 16034,
        "skyddsrumsnr": "121624-0",
        "gatuadress": "Johan Enbergsväg 60",
        "kommunnamn": "Solna",
        "antalplatser": 121,
        "latitude": 17.999247456270687,
        "longitude": 59.345284218456094
    },
    {
        "id": 16035,
        "skyddsrumsnr": "121625-6",
        "gatuadress": "Johan Enbergs väg 54B",
        "kommunnamn": "Solna",
        "antalplatser": 185,
        "latitude": 17.999849033124317,
        "longitude": 59.345521978253394
    },
    {
        "id": 16036,
        "skyddsrumsnr": "121626-1",
        "gatuadress": "Johan Enbergsväg 36-38",
        "kommunnamn": "Solna",
        "antalplatser": 195,
        "latitude": 18.003123592951134,
        "longitude": 59.34674053500272
    },
    {
        "id": 16037,
        "skyddsrumsnr": "121627-7",
        "gatuadress": "Johan Enbergsväg 32",
        "kommunnamn": "Solna",
        "antalplatser": 147,
        "latitude": 18.003123592951134,
        "longitude": 59.34674053500272
    },
    {
        "id": 16038,
        "skyddsrumsnr": "121628-2",
        "gatuadress": "Förvaltarvägen 6",
        "kommunnamn": "Solna",
        "antalplatser": 69,
        "latitude": 18.013230479567877,
        "longitude": 59.36508148841351
    },
    {
        "id": 16039,
        "skyddsrumsnr": "121629-8",
        "gatuadress": "Förvaltarvägen 4",
        "kommunnamn": "Solna",
        "antalplatser": 69,
        "latitude": 18.013902896924897,
        "longitude": 59.364922162567
    },
    {
        "id": 16040,
        "skyddsrumsnr": "121630-3",
        "gatuadress": "Förvaltarvägen 2",
        "kommunnamn": "Solna",
        "antalplatser": 69,
        "latitude": 18.014591283598207,
        "longitude": 59.36474449153674
    },
    {
        "id": 16041,
        "skyddsrumsnr": "121631-9",
        "gatuadress": "Industrivägen 10",
        "kommunnamn": "Solna",
        "antalplatser": 72,
        "latitude": 18.0145734935876,
        "longitude": 59.35700785172781
    },
    {
        "id": 16042,
        "skyddsrumsnr": "121632-4",
        "gatuadress": "Gelbgjutarevägen 5",
        "kommunnamn": "Solna",
        "antalplatser": 46,
        "latitude": 18.014782557502592,
        "longitude": 59.35738043242951
    },
    {
        "id": 16043,
        "skyddsrumsnr": "121634-5",
        "gatuadress": "Gelbgjutarevägen 9",
        "kommunnamn": "Solna",
        "antalplatser": 65,
        "latitude": 18.013709562056185,
        "longitude": 59.35738727983671
    },
    {
        "id": 16044,
        "skyddsrumsnr": "121635-0",
        "gatuadress": "Åldermansvägen 17-19",
        "kommunnamn": "Solna",
        "antalplatser": 58,
        "latitude": 18.01389095205712,
        "longitude": 59.356852903413866
    },
    {
        "id": 16045,
        "skyddsrumsnr": "121637-1",
        "gatuadress": "Industrivägen 12-14",
        "kommunnamn": "Solna",
        "antalplatser": 116,
        "latitude": 18.014613508076007,
        "longitude": 59.35666545322369
    },
    {
        "id": 16046,
        "skyddsrumsnr": "121638-7",
        "gatuadress": "Törnbacken 8",
        "kommunnamn": "Solna",
        "antalplatser": 91,
        "latitude": 18.00503405246818,
        "longitude": 59.37848924477054
    },
    {
        "id": 16047,
        "skyddsrumsnr": "121639-2",
        "gatuadress": "Törnbacken 6",
        "kommunnamn": "Solna",
        "antalplatser": 86,
        "latitude": 18.005599839852096,
        "longitude": 59.37811675880974
    },
    {
        "id": 16048,
        "skyddsrumsnr": "121640-8",
        "gatuadress": "Törnbacken 4",
        "kommunnamn": "Solna",
        "antalplatser": 88,
        "latitude": 18.00647302179298,
        "longitude": 59.37803372170932
    },
    {
        "id": 16049,
        "skyddsrumsnr": "121641-3",
        "gatuadress": "Östervägen 40",
        "kommunnamn": "Solna",
        "antalplatser": 45,
        "latitude": 17.994361961451023,
        "longitude": 59.36850870751963
    },
    {
        "id": 16050,
        "skyddsrumsnr": "121642-9",
        "gatuadress": "Östervägen 38",
        "kommunnamn": "Solna",
        "antalplatser": 50,
        "latitude": 17.994829403688378,
        "longitude": 59.36821940080933
    },
    {
        "id": 16051,
        "skyddsrumsnr": "121643-4",
        "gatuadress": "Östervägen 36",
        "kommunnamn": "Solna",
        "antalplatser": 49,
        "latitude": 17.995276895072266,
        "longitude": 59.36790359266311
    },
    {
        "id": 16052,
        "skyddsrumsnr": "121649-7",
        "gatuadress": "Rådjursstigen 4",
        "kommunnamn": "Solna",
        "antalplatser": 100,
        "latitude": 18.038675090517227,
        "longitude": 59.38148363460719
    },
    {
        "id": 16053,
        "skyddsrumsnr": "121650-2",
        "gatuadress": "Rådjursstigen 12",
        "kommunnamn": "Solna",
        "antalplatser": 38,
        "latitude": 18.038675090517227,
        "longitude": 59.38148363460719
    },
    {
        "id": 16054,
        "skyddsrumsnr": "121651-8",
        "gatuadress": "Rådjursstigen 14",
        "kommunnamn": "Solna",
        "antalplatser": 100,
        "latitude": 18.039586354240495,
        "longitude": 59.38084234357613
    },
    {
        "id": 16055,
        "skyddsrumsnr": "121652-3",
        "gatuadress": "Rådjursstigen 18",
        "kommunnamn": "Solna",
        "antalplatser": 100,
        "latitude": 18.039586354240495,
        "longitude": 59.38084234357613
    },
    {
        "id": 16056,
        "skyddsrumsnr": "121653-9",
        "gatuadress": "Rådjursstigen 22",
        "kommunnamn": "Solna",
        "antalplatser": 125,
        "latitude": 18.039586354240495,
        "longitude": 59.38084234357613
    },
    {
        "id": 16057,
        "skyddsrumsnr": "121654-4",
        "gatuadress": "Rådjursstigen 44",
        "kommunnamn": "Solna",
        "antalplatser": 110,
        "latitude": 18.038134075566003,
        "longitude": 59.38114578192248
    },
    {
        "id": 16058,
        "skyddsrumsnr": "121656-5",
        "gatuadress": "Rådjursstigen 36",
        "kommunnamn": "Solna",
        "antalplatser": 110,
        "latitude": 18.038858522766272,
        "longitude": 59.380778435485944
    },
    {
        "id": 16059,
        "skyddsrumsnr": "121657-0",
        "gatuadress": "Rådjursstigen 24",
        "kommunnamn": "Solna",
        "antalplatser": 106,
        "latitude": 18.038328670509777,
        "longitude": 59.38036843394134
    },
    {
        "id": 16060,
        "skyddsrumsnr": "121658-6",
        "gatuadress": "Krysshammarvägen 28",
        "kommunnamn": "Solna",
        "antalplatser": 63,
        "latitude": 17.993145076341904,
        "longitude": 59.34990859871886
    },
    {
        "id": 16061,
        "skyddsrumsnr": "121659-1",
        "gatuadress": "Krysshammarvägen 24",
        "kommunnamn": "Solna",
        "antalplatser": 400,
        "latitude": 17.99307617210398,
        "longitude": 59.349326088429855
    },
    {
        "id": 16062,
        "skyddsrumsnr": "121660-7",
        "gatuadress": "Krysshammarsvägen 36",
        "kommunnamn": "Solna",
        "antalplatser": 400,
        "latitude": 17.991969879832787,
        "longitude": 59.3493514974514
    },
    {
        "id": 16063,
        "skyddsrumsnr": "121661-2",
        "gatuadress": "Krysshammarvägen 42-44",
        "kommunnamn": "Solna",
        "antalplatser": 57,
        "latitude": 17.992019814127453,
        "longitude": 59.34971877860107
    },
    {
        "id": 16064,
        "skyddsrumsnr": "121662-8",
        "gatuadress": "Jonstorpsvägen 18-24",
        "kommunnamn": "Solna",
        "antalplatser": 176,
        "latitude": 17.979667417031884,
        "longitude": 59.35252691224158
    },
    {
        "id": 16065,
        "skyddsrumsnr": "121663-3",
        "gatuadress": "Jonstorpsvägen 26-32",
        "kommunnamn": "Solna",
        "antalplatser": 190,
        "latitude": 17.97959979370284,
        "longitude": 59.35295978623334
    },
    {
        "id": 16066,
        "skyddsrumsnr": "121665-4",
        "gatuadress": "Gunnarbovägen 2",
        "kommunnamn": "Solna",
        "antalplatser": 225,
        "latitude": 17.999080710317358,
        "longitude": 59.381070542236536
    },
    {
        "id": 16067,
        "skyddsrumsnr": "121668-0",
        "gatuadress": "Hannebergsgatan 23",
        "kommunnamn": "Solna",
        "antalplatser": 80,
        "latitude": 18.003208818719177,
        "longitude": 59.3572612774067
    },
    {
        "id": 16068,
        "skyddsrumsnr": "121669-6",
        "gatuadress": "Hannebergsgatan 13",
        "kommunnamn": "Solna",
        "antalplatser": 75,
        "latitude": 18.004411339293135,
        "longitude": 59.356928031171826
    },
    {
        "id": 16069,
        "skyddsrumsnr": "121672-2",
        "gatuadress": "Ekensbergsvägen 79",
        "kommunnamn": "Solna",
        "antalplatser": 75,
        "latitude": 17.991588534033706,
        "longitude": 59.361608222022326
    },
    {
        "id": 16070,
        "skyddsrumsnr": "121673-8",
        "gatuadress": "Ekensbergsvägen 71",
        "kommunnamn": "Solna",
        "antalplatser": 74,
        "latitude": 17.99200873777198,
        "longitude": 59.36138291073542
    },
    {
        "id": 16071,
        "skyddsrumsnr": "121674-3",
        "gatuadress": "Ekensbergsvägen 63",
        "kommunnamn": "Solna",
        "antalplatser": 104,
        "latitude": 17.993298988656342,
        "longitude": 59.36144314253129
    },
    {
        "id": 16072,
        "skyddsrumsnr": "121675-9",
        "gatuadress": "Virebergsvägen 2-4",
        "kommunnamn": "Solna",
        "antalplatser": 56,
        "latitude": 17.991562657593516,
        "longitude": 59.36111458432773
    },
    {
        "id": 16073,
        "skyddsrumsnr": "121676-4",
        "gatuadress": "Hjortstigen 1",
        "kommunnamn": "Solna",
        "antalplatser": 150,
        "latitude": 18.030483317555174,
        "longitude": 59.383237904362645
    },
    {
        "id": 16074,
        "skyddsrumsnr": "121678-5",
        "gatuadress": "Hjortstigen 1",
        "kommunnamn": "Solna",
        "antalplatser": 250,
        "latitude": 18.030483317555174,
        "longitude": 59.383237904362645
    },
    {
        "id": 16075,
        "skyddsrumsnr": "121679-0",
        "gatuadress": "Hjortstigen 1",
        "kommunnamn": "Solna",
        "antalplatser": 111,
        "latitude": 18.032163607717923,
        "longitude": 59.383513352021254
    },
    {
        "id": 16076,
        "skyddsrumsnr": "121680-6",
        "gatuadress": "Törnbacken 1",
        "kommunnamn": "Solna",
        "antalplatser": 30,
        "latitude": 18.00525093813609,
        "longitude": 59.37775637365745
    },
    {
        "id": 16077,
        "skyddsrumsnr": "121681-1",
        "gatuadress": "Törnbacken 5",
        "kommunnamn": "Solna",
        "antalplatser": 68,
        "latitude": 18.00525093813609,
        "longitude": 59.37775637365745
    },
    {
        "id": 16078,
        "skyddsrumsnr": "121682-7",
        "gatuadress": "Törnbacken 13",
        "kommunnamn": "Solna",
        "antalplatser": 53,
        "latitude": 18.00418273756117,
        "longitude": 59.378023618210705
    },
    {
        "id": 16079,
        "skyddsrumsnr": "121683-2",
        "gatuadress": "Lundagatan 4",
        "kommunnamn": "Solna",
        "antalplatser": 68,
        "latitude": 18.005478715767058,
        "longitude": 59.35407279872372
    },
    {
        "id": 16080,
        "skyddsrumsnr": "121684-8",
        "gatuadress": "Lundavägen 18-20",
        "kommunnamn": "Solna",
        "antalplatser": 74,
        "latitude": 18.001458357631392,
        "longitude": 59.35438113291386
    },
    {
        "id": 16081,
        "skyddsrumsnr": "121685-3",
        "gatuadress": "Lundagatan 14",
        "kommunnamn": "Solna",
        "antalplatser": 33,
        "latitude": 18.00258157399691,
        "longitude": 59.354346269583594
    },
    {
        "id": 16082,
        "skyddsrumsnr": "121686-9",
        "gatuadress": "Lundagatan 6a-b",
        "kommunnamn": "Solna",
        "antalplatser": 62,
        "latitude": 18.004863124008033,
        "longitude": 59.354275703943266
    },
    {
        "id": 16083,
        "skyddsrumsnr": "121687-4",
        "gatuadress": "Råsundavägen 165",
        "kommunnamn": "Solna",
        "antalplatser": 33,
        "latitude": 17.981430189598207,
        "longitude": 59.36439303187256
    },
    {
        "id": 16084,
        "skyddsrumsnr": "121689-5",
        "gatuadress": "Rättarvägen 2",
        "kommunnamn": "Solna",
        "antalplatser": 30,
        "latitude": 18.01131166311821,
        "longitude": 59.36488321235186
    },
    {
        "id": 16085,
        "skyddsrumsnr": "121690-0",
        "gatuadress": "Förvaltarvägen 23-25",
        "kommunnamn": "Solna",
        "antalplatser": 62,
        "latitude": 18.012142922765236,
        "longitude": 59.36492690595543
    },
    {
        "id": 16086,
        "skyddsrumsnr": "121691-6",
        "gatuadress": "Förvaltarvägen 17-21",
        "kommunnamn": "Solna",
        "antalplatser": 41,
        "latitude": 18.012453644191382,
        "longitude": 59.36465912710677
    },
    {
        "id": 16087,
        "skyddsrumsnr": "121692-1",
        "gatuadress": "Ekensbergsvägen 89",
        "kommunnamn": "Solna",
        "antalplatser": 71,
        "latitude": 17.986957117600642,
        "longitude": 59.36118427949671
    },
    {
        "id": 16088,
        "skyddsrumsnr": "121693-7",
        "gatuadress": "Ekensbergsvägen 89",
        "kommunnamn": "Solna",
        "antalplatser": 88,
        "latitude": 17.98680655158479,
        "longitude": 59.360873219908854
    },
    {
        "id": 16089,
        "skyddsrumsnr": "121694-2",
        "gatuadress": "Framnäsbacken 22",
        "kommunnamn": "Solna",
        "antalplatser": 229,
        "latitude": 17.9848907828814,
        "longitude": 59.35629830498846
    },
    {
        "id": 16090,
        "skyddsrumsnr": "121695-8",
        "gatuadress": "Ingentingsgatan 3",
        "kommunnamn": "Solna",
        "antalplatser": 36,
        "latitude": 18.002073035014853,
        "longitude": 59.35317182422962
    },
    {
        "id": 16091,
        "skyddsrumsnr": "121696-3",
        "gatuadress": "Ingentingsgatan 5",
        "kommunnamn": "Solna",
        "antalplatser": 36,
        "latitude": 18.002269515445573,
        "longitude": 59.35300554781269
    },
    {
        "id": 16092,
        "skyddsrumsnr": "121700-3",
        "gatuadress": "Råsundavägen 80",
        "kommunnamn": "Solna",
        "antalplatser": 117,
        "latitude": 18.00051516967305,
        "longitude": 59.367612372720316
    },
    {
        "id": 16093,
        "skyddsrumsnr": "121701-9",
        "gatuadress": "Råsundavägen 80",
        "kommunnamn": "Solna",
        "antalplatser": 100,
        "latitude": 18.00051516967305,
        "longitude": 59.367612372720316
    },
    {
        "id": 16094,
        "skyddsrumsnr": "121702-4",
        "gatuadress": "Råsundavägen 80",
        "kommunnamn": "Solna",
        "antalplatser": 80,
        "latitude": 18.00051516967305,
        "longitude": 59.367612372720316
    },
    {
        "id": 16095,
        "skyddsrumsnr": "121706-6",
        "gatuadress": "Kungshamra 11",
        "kommunnamn": "Solna",
        "antalplatser": 218,
        "latitude": 18.02583401015876,
        "longitude": 59.38127009215983
    },
    {
        "id": 16096,
        "skyddsrumsnr": "121707-1",
        "gatuadress": "Kungshamra 21",
        "kommunnamn": "Solna",
        "antalplatser": 218,
        "latitude": 18.024983142581206,
        "longitude": 59.380813572069236
    },
    {
        "id": 16097,
        "skyddsrumsnr": "121708-7",
        "gatuadress": "Björnstigen 91",
        "kommunnamn": "Solna",
        "antalplatser": 218,
        "latitude": 18.02324711231631,
        "longitude": 59.381491857739086
    },
    {
        "id": 16098,
        "skyddsrumsnr": "121709-2",
        "gatuadress": "Kungshamra 41",
        "kommunnamn": "Solna",
        "antalplatser": 218,
        "latitude": 18.024166682101455,
        "longitude": 59.381928823124966
    },
    {
        "id": 16099,
        "skyddsrumsnr": "121710-8",
        "gatuadress": "Kungshamravägen 51",
        "kommunnamn": "Solna",
        "antalplatser": 218,
        "latitude": 18.024065236538565,
        "longitude": 59.382964582185814
    },
    {
        "id": 16100,
        "skyddsrumsnr": "121711-3",
        "gatuadress": "Kungshamra 71",
        "kommunnamn": "Solna",
        "antalplatser": 218,
        "latitude": 18.0262919387248,
        "longitude": 59.383047706386876
    },
    {
        "id": 16101,
        "skyddsrumsnr": "121712-9",
        "gatuadress": "Johan Enbergs väg 1",
        "kommunnamn": "Solna",
        "antalplatser": 158,
        "latitude": 18.005076002552123,
        "longitude": 59.347728917843305
    },
    {
        "id": 16102,
        "skyddsrumsnr": "121713-4",
        "gatuadress": "Karlsrogatan 2",
        "kommunnamn": "Solna",
        "antalplatser": 125,
        "latitude": 18.00173307535722,
        "longitude": 59.377406092686876
    },
    {
        "id": 16103,
        "skyddsrumsnr": "121717-6",
        "gatuadress": "Nanna Swartz väg 4",
        "kommunnamn": "Solna",
        "antalplatser": 30,
        "latitude": 18.026085999207847,
        "longitude": 59.34754815376991
    },
    {
        "id": 16104,
        "skyddsrumsnr": "121719-7",
        "gatuadress": "Doktorsringen 22",
        "kommunnamn": "Solna",
        "antalplatser": 46,
        "latitude": 18.027655932893193,
        "longitude": 59.347790251871956
    },
    {
        "id": 16105,
        "skyddsrumsnr": "121720-2",
        "gatuadress": "Nobels väg 10",
        "kommunnamn": "Solna",
        "antalplatser": 32,
        "latitude": 18.026770841652606,
        "longitude": 59.348323029581174
    },
    {
        "id": 16106,
        "skyddsrumsnr": "121722-3",
        "gatuadress": "Banvaktsvägen 24",
        "kommunnamn": "Solna",
        "antalplatser": 25,
        "latitude": 18.01599953648151,
        "longitude": 59.35622001889843
    },
    {
        "id": 16107,
        "skyddsrumsnr": "121726-5",
        "gatuadress": "Banvaktsvägen 20",
        "kommunnamn": "Solna",
        "antalplatser": 50,
        "latitude": 18.01608885066041,
        "longitude": 59.35663131378365
    },
    {
        "id": 16108,
        "skyddsrumsnr": "121727-0",
        "gatuadress": "Industrivägen 19",
        "kommunnamn": "Solna",
        "antalplatser": 145,
        "latitude": 18.01540137971372,
        "longitude": 59.3570156552683
    },
    {
        "id": 16109,
        "skyddsrumsnr": "121728-6",
        "gatuadress": "Råsundavägen 160",
        "kommunnamn": "Solna",
        "antalplatser": 100,
        "latitude": 17.980647775741343,
        "longitude": 59.36490515701358
    },
    {
        "id": 16110,
        "skyddsrumsnr": "121729-1",
        "gatuadress": "Råsundavägen 162",
        "kommunnamn": "Solna",
        "antalplatser": 112,
        "latitude": 17.98012359430851,
        "longitude": 59.36454871849069
    },
    {
        "id": 16111,
        "skyddsrumsnr": "121730-7",
        "gatuadress": "Lövgatan 68",
        "kommunnamn": "Solna",
        "antalplatser": 125,
        "latitude": 17.97960650514181,
        "longitude": 59.364272989691806
    },
    {
        "id": 16112,
        "skyddsrumsnr": "121732-8",
        "gatuadress": "Lövgatan 70",
        "kommunnamn": "Solna",
        "antalplatser": 125,
        "latitude": 17.97888175368192,
        "longitude": 59.364640009958315
    },
    {
        "id": 16113,
        "skyddsrumsnr": "121734-9",
        "gatuadress": "Råsundavägen 159",
        "kommunnamn": "Solna",
        "antalplatser": 68,
        "latitude": 17.98170685078958,
        "longitude": 59.364737156285244
    },
    {
        "id": 16114,
        "skyddsrumsnr": "121735-4",
        "gatuadress": "Wiboms Väg 5",
        "kommunnamn": "Solna",
        "antalplatser": 174,
        "latitude": 17.99712006992152,
        "longitude": 59.34789420533118
    },
    {
        "id": 16115,
        "skyddsrumsnr": "121737-5",
        "gatuadress": "Wiboms Väg 15",
        "kommunnamn": "Solna",
        "antalplatser": 157,
        "latitude": 17.99664012702911,
        "longitude": 59.34724027612633
    },
    {
        "id": 16116,
        "skyddsrumsnr": "121740-1",
        "gatuadress": "Sagagatan 12-14",
        "kommunnamn": "Solna",
        "antalplatser": 57,
        "latitude": 18.001587634968036,
        "longitude": 59.35684033990697
    },
    {
        "id": 16117,
        "skyddsrumsnr": "121743-8",
        "gatuadress": "Östervägen 4",
        "kommunnamn": "Solna",
        "antalplatser": 60,
        "latitude": 18.003330876183078,
        "longitude": 59.36262315331889
    },
    {
        "id": 16118,
        "skyddsrumsnr": "121744-3",
        "gatuadress": "Östervägen 2",
        "kommunnamn": "Solna",
        "antalplatser": 56,
        "latitude": 18.003600843106597,
        "longitude": 59.362491126586
    },
    {
        "id": 16119,
        "skyddsrumsnr": "121745-9",
        "gatuadress": "Mäster Simons Väg 5 B",
        "kommunnamn": "Solna",
        "antalplatser": 38,
        "latitude": 18.012352855361883,
        "longitude": 59.3770173489538
    },
    {
        "id": 16120,
        "skyddsrumsnr": "121746-4",
        "gatuadress": "Bergstigen 14",
        "kommunnamn": "Solna",
        "antalplatser": 66,
        "latitude": 17.985396865992158,
        "longitude": 59.36546142473023
    },
    {
        "id": 16121,
        "skyddsrumsnr": "121748-5",
        "gatuadress": "Bergstigen 12",
        "kommunnamn": "Solna",
        "antalplatser": 73,
        "latitude": 17.985918626875176,
        "longitude": 59.365188878184384
    },
    {
        "id": 16122,
        "skyddsrumsnr": "121749-0",
        "gatuadress": "Bergstigen 10",
        "kommunnamn": "Solna",
        "antalplatser": 73,
        "latitude": 17.98663363108821,
        "longitude": 59.36491190127569
    },
    {
        "id": 16123,
        "skyddsrumsnr": "121750-6",
        "gatuadress": "Bergstigen 8",
        "kommunnamn": "Solna",
        "antalplatser": 61,
        "latitude": 17.987148274347323,
        "longitude": 59.364558638529374
    },
    {
        "id": 16124,
        "skyddsrumsnr": "121751-1",
        "gatuadress": "Mäster Simons Väg 11",
        "kommunnamn": "Solna",
        "antalplatser": 33,
        "latitude": 18.010713036943102,
        "longitude": 59.37659694072923
    },
    {
        "id": 16125,
        "skyddsrumsnr": "121752-7",
        "gatuadress": "Nämndemansgatan 8",
        "kommunnamn": "Solna",
        "antalplatser": 30,
        "latitude": 18.01165870969475,
        "longitude": 59.376934540308056
    },
    {
        "id": 16126,
        "skyddsrumsnr": "121753-2",
        "gatuadress": "Mäster Simons Väg 9 B",
        "kommunnamn": "Solna",
        "antalplatser": 30,
        "latitude": 18.011239388728114,
        "longitude": 59.37677349127026
    },
    {
        "id": 16127,
        "skyddsrumsnr": "121754-8",
        "gatuadress": "Råsundavägen 66",
        "kommunnamn": "Solna",
        "antalplatser": 50,
        "latitude": 18.00624769905725,
        "longitude": 59.36574596306144
    },
    {
        "id": 16128,
        "skyddsrumsnr": "121755-3",
        "gatuadress": "Råsundavägen 64",
        "kommunnamn": "Solna",
        "antalplatser": 70,
        "latitude": 18.006968104027177,
        "longitude": 59.36553165029427
    },
    {
        "id": 16129,
        "skyddsrumsnr": "121756-9",
        "gatuadress": "Råsundavägen 62",
        "kommunnamn": "Solna",
        "antalplatser": 88,
        "latitude": 18.00763897213768,
        "longitude": 59.36535442092771
    },
    {
        "id": 16130,
        "skyddsrumsnr": "121757-4",
        "gatuadress": "Råsundavägen 60",
        "kommunnamn": "Solna",
        "antalplatser": 81,
        "latitude": 18.008432015577856,
        "longitude": 59.36516538178505
    },
    {
        "id": 16131,
        "skyddsrumsnr": "121759-5",
        "gatuadress": "Erik Sandbergs Gata 17",
        "kommunnamn": "Solna",
        "antalplatser": 50,
        "latitude": 17.988388262232817,
        "longitude": 59.365446785948464
    },
    {
        "id": 16132,
        "skyddsrumsnr": "121760-0",
        "gatuadress": "Erik Sandbergs Gata 21",
        "kommunnamn": "Solna",
        "antalplatser": 50,
        "latitude": 17.987085390050435,
        "longitude": 59.36584507911478
    },
    {
        "id": 16133,
        "skyddsrumsnr": "121761-6",
        "gatuadress": "Erik Sandbergs Gata 19",
        "kommunnamn": "Solna",
        "antalplatser": 50,
        "latitude": 17.987682940438265,
        "longitude": 59.36563369045365
    },
    {
        "id": 16134,
        "skyddsrumsnr": "121762-1",
        "gatuadress": "Erik Sandbergs Gata 23",
        "kommunnamn": "Solna",
        "antalplatser": 50,
        "latitude": 17.986447173674716,
        "longitude": 59.365994494690774
    },
    {
        "id": 16135,
        "skyddsrumsnr": "121763-7",
        "gatuadress": "Ripstigen 2",
        "kommunnamn": "Solna",
        "antalplatser": 112,
        "latitude": 18.041677185633386,
        "longitude": 59.37803481093803
    },
    {
        "id": 16136,
        "skyddsrumsnr": "121764-2",
        "gatuadress": "Ripstigen 4",
        "kommunnamn": "Solna",
        "antalplatser": 120,
        "latitude": 18.04219064017275,
        "longitude": 59.3776723671771
    },
    {
        "id": 16137,
        "skyddsrumsnr": "121765-8",
        "gatuadress": "Ripstigen 6",
        "kommunnamn": "Solna",
        "antalplatser": 136,
        "latitude": 18.042730500259538,
        "longitude": 59.377408153277315
    },
    {
        "id": 16138,
        "skyddsrumsnr": "121766-3",
        "gatuadress": "Ripstigen 8",
        "kommunnamn": "Solna",
        "antalplatser": 136,
        "latitude": 18.04378883590214,
        "longitude": 59.37723068037198
    },
    {
        "id": 16139,
        "skyddsrumsnr": "121767-9",
        "gatuadress": "Lostigen 22",
        "kommunnamn": "Solna",
        "antalplatser": 96,
        "latitude": 18.03132580390116,
        "longitude": 59.38143007115177
    },
    {
        "id": 16140,
        "skyddsrumsnr": "121768-4",
        "gatuadress": "Lostigen 26-28",
        "kommunnamn": "Solna",
        "antalplatser": 96,
        "latitude": 18.03132580390116,
        "longitude": 59.38143007115177
    },
    {
        "id": 16141,
        "skyddsrumsnr": "121770-5",
        "gatuadress": "Lostigen 6",
        "kommunnamn": "Solna",
        "antalplatser": 125,
        "latitude": 18.03131600968588,
        "longitude": 59.380531681996324
    },
    {
        "id": 16142,
        "skyddsrumsnr": "121771-0",
        "gatuadress": "Lostigen 12",
        "kommunnamn": "Solna",
        "antalplatser": 65,
        "latitude": 18.032346616179915,
        "longitude": 59.380633520609706
    },
    {
        "id": 16143,
        "skyddsrumsnr": "121772-6",
        "gatuadress": "Storgatan 13",
        "kommunnamn": "Solna",
        "antalplatser": 50,
        "latitude": 17.99963493257875,
        "longitude": 59.35346161175719
    },
    {
        "id": 16144,
        "skyddsrumsnr": "121773-1",
        "gatuadress": "Storgatan 11",
        "kommunnamn": "Solna",
        "antalplatser": 70,
        "latitude": 18.000208009613477,
        "longitude": 59.3535742229408
    },
    {
        "id": 16145,
        "skyddsrumsnr": "121774-7",
        "gatuadress": "Huvudstagatan 19",
        "kommunnamn": "Solna",
        "antalplatser": 82,
        "latitude": 17.99735515736088,
        "longitude": 59.35235487150981
    },
    {
        "id": 16146,
        "skyddsrumsnr": "121775-2",
        "gatuadress": "Ängkärrsgatan 4-8",
        "kommunnamn": "Solna",
        "antalplatser": 161,
        "latitude": 17.9983210487208,
        "longitude": 59.35233264898755
    },
    {
        "id": 16147,
        "skyddsrumsnr": "121776-8",
        "gatuadress": "Ängkärrsgatan 10-14",
        "kommunnamn": "Solna",
        "antalplatser": 130,
        "latitude": 17.99840772765364,
        "longitude": 59.35171960182302
    },
    {
        "id": 16148,
        "skyddsrumsnr": "121777-3",
        "gatuadress": "Ängkärrsgatan 16",
        "kommunnamn": "Solna",
        "antalplatser": 85,
        "latitude": 17.997938626975614,
        "longitude": 59.35138892538524
    },
    {
        "id": 16149,
        "skyddsrumsnr": "121778-9",
        "gatuadress": "Ängkärrsgatan 20",
        "kommunnamn": "Solna",
        "antalplatser": 96,
        "latitude": 17.998186218429783,
        "longitude": 59.35120350710942
    },
    {
        "id": 16150,
        "skyddsrumsnr": "121779-4",
        "gatuadress": "Huvudstagatan 27",
        "kommunnamn": "Solna",
        "antalplatser": 50,
        "latitude": 17.997008994326254,
        "longitude": 59.3510239107917
    },
    {
        "id": 16151,
        "skyddsrumsnr": "121781-5",
        "gatuadress": "Huvudstagatan 29",
        "kommunnamn": "Solna",
        "antalplatser": 88,
        "latitude": 17.997090471288427,
        "longitude": 59.35095014817146
    },
    {
        "id": 16152,
        "skyddsrumsnr": "121782-0",
        "gatuadress": "Huvudstagatan 23",
        "kommunnamn": "Solna",
        "antalplatser": 84,
        "latitude": 17.997244723513553,
        "longitude": 59.351701429265425
    },
    {
        "id": 16153,
        "skyddsrumsnr": "121783-6",
        "gatuadress": "Backvägen 9",
        "kommunnamn": "Solna",
        "antalplatser": 85,
        "latitude": 17.999492625288905,
        "longitude": 59.369190496282535
    },
    {
        "id": 16154,
        "skyddsrumsnr": "121784-1",
        "gatuadress": "Backvägen 7",
        "kommunnamn": "Solna",
        "antalplatser": 96,
        "latitude": 17.998902652484727,
        "longitude": 59.368889559894434
    },
    {
        "id": 16155,
        "skyddsrumsnr": "121785-7",
        "gatuadress": "Backvägen 5",
        "kommunnamn": "Solna",
        "antalplatser": 80,
        "latitude": 17.998233550294074,
        "longitude": 59.368689287774174
    },
    {
        "id": 16156,
        "skyddsrumsnr": "121786-2",
        "gatuadress": "Backvägen 3",
        "kommunnamn": "Solna",
        "antalplatser": 80,
        "latitude": 17.997689029379423,
        "longitude": 59.36850411924334
    },
    {
        "id": 16157,
        "skyddsrumsnr": "121787-8",
        "gatuadress": "Backvägen 1",
        "kommunnamn": "Solna",
        "antalplatser": 65,
        "latitude": 17.997082306086593,
        "longitude": 59.36821254629594
    },
    {
        "id": 16158,
        "skyddsrumsnr": "121788-3",
        "gatuadress": "Backvägen 10",
        "kommunnamn": "Solna",
        "antalplatser": 65,
        "latitude": 18.000245909672703,
        "longitude": 59.36894850768634
    },
    {
        "id": 16159,
        "skyddsrumsnr": "121789-9",
        "gatuadress": "Backvägen 8",
        "kommunnamn": "Solna",
        "antalplatser": 73,
        "latitude": 17.999695035887974,
        "longitude": 59.36869160510985
    },
    {
        "id": 16160,
        "skyddsrumsnr": "121790-4",
        "gatuadress": "Backvägen 6",
        "kommunnamn": "Solna",
        "antalplatser": 92,
        "latitude": 17.999097005102055,
        "longitude": 59.36849868777706
    },
    {
        "id": 16161,
        "skyddsrumsnr": "121792-5",
        "gatuadress": "Backvägen 4",
        "kommunnamn": "Solna",
        "antalplatser": 89,
        "latitude": 17.998519718639514,
        "longitude": 59.36834123477018
    },
    {
        "id": 16162,
        "skyddsrumsnr": "121795-1",
        "gatuadress": "Backvägen 2",
        "kommunnamn": "Solna",
        "antalplatser": 75,
        "latitude": 17.99792407586984,
        "longitude": 59.3681752154467
    },
    {
        "id": 16163,
        "skyddsrumsnr": "121797-2",
        "gatuadress": "Johan Enbergs väg 7",
        "kommunnamn": "Solna",
        "antalplatser": 158,
        "latitude": 18.004259593246534,
        "longitude": 59.34625605389463
    },
    {
        "id": 16164,
        "skyddsrumsnr": "121798-8",
        "gatuadress": "Johan Enbergs väg 9",
        "kommunnamn": "Solna",
        "antalplatser": 158,
        "latitude": 18.003501655953784,
        "longitude": 59.34584219673543
    },
    {
        "id": 16165,
        "skyddsrumsnr": "121799-3",
        "gatuadress": "Industrivägen 15",
        "kommunnamn": "Solna",
        "antalplatser": 58,
        "latitude": 18.016179619162823,
        "longitude": 59.357653631951116
    },
    {
        "id": 16166,
        "skyddsrumsnr": "121801-2",
        "gatuadress": "Nybodagatan 5",
        "kommunnamn": "Solna",
        "antalplatser": 150,
        "latitude": 17.991387052301537,
        "longitude": 59.35692213812952
    },
    {
        "id": 16167,
        "skyddsrumsnr": "121802-8",
        "gatuadress": "Nybodagatan 7",
        "kommunnamn": "Solna",
        "antalplatser": 150,
        "latitude": 17.991575739031102,
        "longitude": 59.35746595470011
    },
    {
        "id": 16168,
        "skyddsrumsnr": "121803-3",
        "gatuadress": "Fläderstigen 13",
        "kommunnamn": "Solna",
        "antalplatser": 88,
        "latitude": 18.00543425437183,
        "longitude": 59.37704224806051
    },
    {
        "id": 16169,
        "skyddsrumsnr": "121804-9",
        "gatuadress": "Törnbacken 2",
        "kommunnamn": "Solna",
        "antalplatser": 100,
        "latitude": 18.006683420330546,
        "longitude": 59.377426802315966
    },
    {
        "id": 16170,
        "skyddsrumsnr": "121805-4",
        "gatuadress": "Fläderstigen 2-6",
        "kommunnamn": "Solna",
        "antalplatser": 98,
        "latitude": 18.00729039179829,
        "longitude": 59.377718328222855
    },
    {
        "id": 16171,
        "skyddsrumsnr": "121807-5",
        "gatuadress": "Ankdammsgatan 23",
        "kommunnamn": "Solna",
        "antalplatser": 46,
        "latitude": 17.987862443557454,
        "longitude": 59.3560684538094
    },
    {
        "id": 16172,
        "skyddsrumsnr": "121808-0",
        "gatuadress": "Ankdammsgatan 19",
        "kommunnamn": "Solna",
        "antalplatser": 165,
        "latitude": 17.988563041762877,
        "longitude": 59.35563004480341
    },
    {
        "id": 16173,
        "skyddsrumsnr": "121809-6",
        "gatuadress": "Ankdammsgatan 21",
        "kommunnamn": "Solna",
        "antalplatser": 175,
        "latitude": 17.988738263315728,
        "longitude": 59.356021411173344
    },
    {
        "id": 16174,
        "skyddsrumsnr": "121810-1",
        "gatuadress": "Lostigen 32-36",
        "kommunnamn": "Solna",
        "antalplatser": 133,
        "latitude": 18.029578592878558,
        "longitude": 59.381587505193785
    },
    {
        "id": 16175,
        "skyddsrumsnr": "121813-8",
        "gatuadress": "Fyrgränd 4",
        "kommunnamn": "Solna",
        "antalplatser": 50,
        "latitude": 18.01186544111461,
        "longitude": 59.36378309689291
    },
    {
        "id": 16176,
        "skyddsrumsnr": "121814-3",
        "gatuadress": "Forngränd 2 A-B",
        "kommunnamn": "Solna",
        "antalplatser": 133,
        "latitude": 18.013007317481094,
        "longitude": 59.36375670306798
    },
    {
        "id": 16177,
        "skyddsrumsnr": "121815-9",
        "gatuadress": "Viktoriagatan 3-7",
        "kommunnamn": "Solna",
        "antalplatser": 54,
        "latitude": 18.01547818296025,
        "longitude": 59.36263919347334
    },
    {
        "id": 16178,
        "skyddsrumsnr": "121816-4",
        "gatuadress": "Broddgatan 1-3",
        "kommunnamn": "Solna",
        "antalplatser": 28,
        "latitude": 18.01547818296025,
        "longitude": 59.36263919347334
    },
    {
        "id": 16179,
        "skyddsrumsnr": "121818-5",
        "gatuadress": "Nybodagatan 10",
        "kommunnamn": "Solna",
        "antalplatser": 118,
        "latitude": 17.992280824483963,
        "longitude": 59.35647927413555
    },
    {
        "id": 16180,
        "skyddsrumsnr": "121819-0",
        "gatuadress": "Nybodagatan 12",
        "kommunnamn": "Solna",
        "antalplatser": 78,
        "latitude": 17.992280824483963,
        "longitude": 59.35647927413555
    },
    {
        "id": 16181,
        "skyddsrumsnr": "121820-6",
        "gatuadress": "Nybodagatan 16",
        "kommunnamn": "Solna",
        "antalplatser": 100,
        "latitude": 17.992449403809264,
        "longitude": 59.35719428609023
    },
    {
        "id": 16182,
        "skyddsrumsnr": "121821-1",
        "gatuadress": "Nybodagatan 14",
        "kommunnamn": "Solna",
        "antalplatser": 122,
        "latitude": 17.992449403809264,
        "longitude": 59.35719428609023
    },
    {
        "id": 16183,
        "skyddsrumsnr": "121822-7",
        "gatuadress": "Nybodagatan 6 B",
        "kommunnamn": "Solna",
        "antalplatser": 128,
        "latitude": 17.993156219594255,
        "longitude": 59.356027839712425
    },
    {
        "id": 16184,
        "skyddsrumsnr": "121823-2",
        "gatuadress": "Ankdammsgatan 18-20",
        "kommunnamn": "Solna",
        "antalplatser": 104,
        "latitude": 17.994126785905962,
        "longitude": 59.35625715181416
    },
    {
        "id": 16185,
        "skyddsrumsnr": "121824-8",
        "gatuadress": "Ankdammsgatan 18-20",
        "kommunnamn": "Solna",
        "antalplatser": 125,
        "latitude": 17.994126785905962,
        "longitude": 59.35625715181416
    },
    {
        "id": 16186,
        "skyddsrumsnr": "121825-3",
        "gatuadress": "Ankdammsgatan 24",
        "kommunnamn": "Solna",
        "antalplatser": 106,
        "latitude": 17.994005772516672,
        "longitude": 59.355882518363636
    },
    {
        "id": 16187,
        "skyddsrumsnr": "121826-9",
        "gatuadress": "Nybodagatan 2",
        "kommunnamn": "Solna",
        "antalplatser": 100,
        "latitude": 17.99212981623051,
        "longitude": 59.35576385854739
    },
    {
        "id": 16188,
        "skyddsrumsnr": "121827-4",
        "gatuadress": "Nybodagatan 4",
        "kommunnamn": "Solna",
        "antalplatser": 100,
        "latitude": 17.99212981623051,
        "longitude": 59.35576385854739
    },
    {
        "id": 16189,
        "skyddsrumsnr": "121829-5",
        "gatuadress": "Ankdammsgatan 30",
        "kommunnamn": "Solna",
        "antalplatser": 160,
        "latitude": 17.99336181173017,
        "longitude": 59.355564828955764
    },
    {
        "id": 16190,
        "skyddsrumsnr": "121830-0",
        "gatuadress": "Ankdammsgatan 14-16",
        "kommunnamn": "Solna",
        "antalplatser": 158,
        "latitude": 17.993329555900466,
        "longitude": 59.35679665779476
    },
    {
        "id": 16191,
        "skyddsrumsnr": "121831-6",
        "gatuadress": "Ankdammsgatan 14-16",
        "kommunnamn": "Solna",
        "antalplatser": 153,
        "latitude": 17.99466328631879,
        "longitude": 59.357152414347176
    },
    {
        "id": 16192,
        "skyddsrumsnr": "121832-1",
        "gatuadress": "Ankdammsgatan 14-16",
        "kommunnamn": "Solna",
        "antalplatser": 90,
        "latitude": 17.993448194723243,
        "longitude": 59.35714438819229
    },
    {
        "id": 16193,
        "skyddsrumsnr": "121833-7",
        "gatuadress": "Wiboms Väg 8",
        "kommunnamn": "Solna",
        "antalplatser": 163,
        "latitude": 17.995420986146822,
        "longitude": 59.34678306376295
    },
    {
        "id": 16194,
        "skyddsrumsnr": "121834-2",
        "gatuadress": "Wiboms Väg 10",
        "kommunnamn": "Solna",
        "antalplatser": 167,
        "latitude": 17.996014365221452,
        "longitude": 59.346329102845765
    },
    {
        "id": 16195,
        "skyddsrumsnr": "121835-8",
        "gatuadress": "Wiboms Väg 12",
        "kommunnamn": "Solna",
        "antalplatser": 167,
        "latitude": 17.99667954337174,
        "longitude": 59.34589145965148
    },
    {
        "id": 16196,
        "skyddsrumsnr": "121836-3",
        "gatuadress": "Hannebergsgatan 16",
        "kommunnamn": "Solna",
        "antalplatser": 64,
        "latitude": 18.004876388991274,
        "longitude": 59.35760923699245
    },
    {
        "id": 16197,
        "skyddsrumsnr": "121837-9",
        "gatuadress": "Hannebergsgatan 14",
        "kommunnamn": "Solna",
        "antalplatser": 66,
        "latitude": 18.00537883134187,
        "longitude": 59.357121387441076
    },
    {
        "id": 16198,
        "skyddsrumsnr": "121838-4",
        "gatuadress": "Ängkärrsgatan 3",
        "kommunnamn": "Solna",
        "antalplatser": 57,
        "latitude": 17.99819053821907,
        "longitude": 59.35284785784483
    },
    {
        "id": 16199,
        "skyddsrumsnr": "121840-5",
        "gatuadress": "Västra Vägen 3 B",
        "kommunnamn": "Solna",
        "antalplatser": 156,
        "latitude": 18.00397837973524,
        "longitude": 59.3613861232581
    },
    {
        "id": 16200,
        "skyddsrumsnr": "121841-0",
        "gatuadress": "Västra Vägen 1 D",
        "kommunnamn": "Solna",
        "antalplatser": 190,
        "latitude": 18.004389771675886,
        "longitude": 59.36106212697393
    },
    {
        "id": 16201,
        "skyddsrumsnr": "121842-6",
        "gatuadress": "Nybodagatan 3",
        "kommunnamn": "Solna",
        "antalplatser": 140,
        "latitude": 17.991402031045272,
        "longitude": 59.35629277183956
    },
    {
        "id": 16202,
        "skyddsrumsnr": "121843-1",
        "gatuadress": "Nybodagatan 1",
        "kommunnamn": "Solna",
        "antalplatser": 200,
        "latitude": 17.991249270841312,
        "longitude": 59.35575711642684
    },
    {
        "id": 16203,
        "skyddsrumsnr": "121844-7",
        "gatuadress": "Förvaltarvägen 10",
        "kommunnamn": "Solna",
        "antalplatser": 61,
        "latitude": 18.011777035279096,
        "longitude": 59.36536669483892
    },
    {
        "id": 16204,
        "skyddsrumsnr": "121845-2",
        "gatuadress": "Förvaltarvägen 8",
        "kommunnamn": "Solna",
        "antalplatser": 64,
        "latitude": 18.01242148856708,
        "longitude": 59.36528889802703
    },
    {
        "id": 16205,
        "skyddsrumsnr": "121849-4",
        "gatuadress": "Ripstigen 5",
        "kommunnamn": "Solna",
        "antalplatser": 86,
        "latitude": 18.039914804776277,
        "longitude": 59.379396892506705
    },
    {
        "id": 16206,
        "skyddsrumsnr": "121851-5",
        "gatuadress": "Ripstigen 3",
        "kommunnamn": "Solna",
        "antalplatser": 85,
        "latitude": 18.0406488362227,
        "longitude": 59.379137146191276
    },
    {
        "id": 16207,
        "skyddsrumsnr": "121852-0",
        "gatuadress": "Ripstigen 1",
        "kommunnamn": "Solna",
        "antalplatser": 146,
        "latitude": 18.04095855242861,
        "longitude": 59.37866263897388
    },
    {
        "id": 16208,
        "skyddsrumsnr": "121853-6",
        "gatuadress": "Förvaltarvägen 9-11",
        "kommunnamn": "Solna",
        "antalplatser": 164,
        "latitude": 18.013639498906414,
        "longitude": 59.36453286438308
    },
    {
        "id": 16209,
        "skyddsrumsnr": "121854-1",
        "gatuadress": "Förvaltarvägen 3",
        "kommunnamn": "Solna",
        "antalplatser": 38,
        "latitude": 18.014244077719503,
        "longitude": 59.36420436898153
    },
    {
        "id": 16210,
        "skyddsrumsnr": "121855-7",
        "gatuadress": "Erik Sandbergs Gata 24",
        "kommunnamn": "Solna",
        "antalplatser": 68,
        "latitude": 17.983070473723807,
        "longitude": 59.36563150976989
    },
    {
        "id": 16211,
        "skyddsrumsnr": "121856-2",
        "gatuadress": "Erik Sandbergs Gata 30",
        "kommunnamn": "Solna",
        "antalplatser": 68,
        "latitude": 17.983070473723807,
        "longitude": 59.36563150976989
    },
    {
        "id": 16212,
        "skyddsrumsnr": "121857-8",
        "gatuadress": "Erik Sandbergs Gata 34",
        "kommunnamn": "Solna",
        "antalplatser": 68,
        "latitude": 17.98258218051717,
        "longitude": 59.365283245200544
    },
    {
        "id": 16213,
        "skyddsrumsnr": "121858-3",
        "gatuadress": "Erik Sandbergs Gata 40",
        "kommunnamn": "Solna",
        "antalplatser": 68,
        "latitude": 17.98258218051717,
        "longitude": 59.365283245200544
    },
    {
        "id": 16214,
        "skyddsrumsnr": "121859-9",
        "gatuadress": "Erik Sandbergs Gata 44",
        "kommunnamn": "Solna",
        "antalplatser": 106,
        "latitude": 17.982847045322558,
        "longitude": 59.3654928475059
    },
    {
        "id": 16215,
        "skyddsrumsnr": "121860-4",
        "gatuadress": "Erik Sandbergs Gatan 50",
        "kommunnamn": "Solna",
        "antalplatser": 68,
        "latitude": 17.982847045322558,
        "longitude": 59.3654928475059
    },
    {
        "id": 16216,
        "skyddsrumsnr": "121862-5",
        "gatuadress": "Regementsgatan 56",
        "kommunnamn": "Solna",
        "antalplatser": 104,
        "latitude": 18.00488093632923,
        "longitude": 59.37656076974617
    },
    {
        "id": 16217,
        "skyddsrumsnr": "121863-0",
        "gatuadress": "Enköpingsvägen 19 B",
        "kommunnamn": "Solna",
        "antalplatser": 56,
        "latitude": 18.005507250112196,
        "longitude": 59.37647444271484
    },
    {
        "id": 16218,
        "skyddsrumsnr": "121864-6",
        "gatuadress": "Ritorpsvägen 9",
        "kommunnamn": "Solna",
        "antalplatser": 70,
        "latitude": 18.007017915395824,
        "longitude": 59.37623292498047
    },
    {
        "id": 16219,
        "skyddsrumsnr": "121865-1",
        "gatuadress": "Regemensgatan 50",
        "kommunnamn": "Solna",
        "antalplatser": 97,
        "latitude": 18.00507457523963,
        "longitude": 59.375963225533816
    },
    {
        "id": 16220,
        "skyddsrumsnr": "121866-7",
        "gatuadress": "Ritorpsvägen 3",
        "kommunnamn": "Solna",
        "antalplatser": 50,
        "latitude": 18.007368087841765,
        "longitude": 59.37561379365426
    },
    {
        "id": 16221,
        "skyddsrumsnr": "121871-4",
        "gatuadress": "Skytteholmsvägen 22",
        "kommunnamn": "Solna",
        "antalplatser": 105,
        "latitude": 17.999874370924612,
        "longitude": 59.357967106285294
    },
    {
        "id": 16222,
        "skyddsrumsnr": "121873-5",
        "gatuadress": "Skytteholmsvägen 26",
        "kommunnamn": "Solna",
        "antalplatser": 50,
        "latitude": 17.999939594888332,
        "longitude": 59.358307075332796
    },
    {
        "id": 16223,
        "skyddsrumsnr": "121874-0",
        "gatuadress": "Centralvägen 17",
        "kommunnamn": "Solna",
        "antalplatser": 97,
        "latitude": 18.001191441732615,
        "longitude": 59.35833216723159
    },
    {
        "id": 16224,
        "skyddsrumsnr": "121875-6",
        "gatuadress": "Framnäsbacken 7",
        "kommunnamn": "Solna",
        "antalplatser": 133,
        "latitude": 17.986158314673762,
        "longitude": 59.35650290112087
    },
    {
        "id": 16225,
        "skyddsrumsnr": "121876-1",
        "gatuadress": "Framnäsbacken 5",
        "kommunnamn": "Solna",
        "antalplatser": 92,
        "latitude": 17.986466802713842,
        "longitude": 59.35620827905232
    },
    {
        "id": 16226,
        "skyddsrumsnr": "121877-7",
        "gatuadress": "Framnäsbacken 1",
        "kommunnamn": "Solna",
        "antalplatser": 113,
        "latitude": 17.986830341847984,
        "longitude": 59.355939352398494
    },
    {
        "id": 16227,
        "skyddsrumsnr": "121878-2",
        "gatuadress": "Johan Enbergs väg 3",
        "kommunnamn": "Solna",
        "antalplatser": 158,
        "latitude": 18.00501562226722,
        "longitude": 59.34724506121247
    },
    {
        "id": 16228,
        "skyddsrumsnr": "121879-8",
        "gatuadress": "Johan Enbergs väg 5",
        "kommunnamn": "Solna",
        "antalplatser": 158,
        "latitude": 18.004654367967227,
        "longitude": 59.34674118541092
    },
    {
        "id": 16229,
        "skyddsrumsnr": "121880-3",
        "gatuadress": "Huvudstagatan 6",
        "kommunnamn": "Solna",
        "antalplatser": 25,
        "latitude": 17.99672039002048,
        "longitude": 59.353537659605784
    },
    {
        "id": 16230,
        "skyddsrumsnr": "121881-9",
        "gatuadress": "Polhemsgatan 2",
        "kommunnamn": "Solna",
        "antalplatser": 47,
        "latitude": 17.996724505626013,
        "longitude": 59.353384801950156
    },
    {
        "id": 16231,
        "skyddsrumsnr": "121882-4",
        "gatuadress": "Polhemsgatan 4",
        "kommunnamn": "Solna",
        "antalplatser": 25,
        "latitude": 17.996037997212603,
        "longitude": 59.35338261651298
    },
    {
        "id": 16232,
        "skyddsrumsnr": "121884-5",
        "gatuadress": "Huvudstagatan 4",
        "kommunnamn": "Solna",
        "antalplatser": 54,
        "latitude": 17.996393661803275,
        "longitude": 59.35382374112237
    },
    {
        "id": 16233,
        "skyddsrumsnr": "121885-0",
        "gatuadress": "Storgatan 25",
        "kommunnamn": "Solna",
        "antalplatser": 74,
        "latitude": 17.995797329015705,
        "longitude": 59.353846438784544
    },
    {
        "id": 16234,
        "skyddsrumsnr": "121886-6",
        "gatuadress": "Polhemsgatan 8",
        "kommunnamn": "Solna",
        "antalplatser": 46,
        "latitude": 17.99565241880678,
        "longitude": 59.35340046758812
    },
    {
        "id": 16235,
        "skyddsrumsnr": "121887-1",
        "gatuadress": "Illerstigen 26-32",
        "kommunnamn": "Solna",
        "antalplatser": 262,
        "latitude": 18.02565360600174,
        "longitude": 59.383592704497254
    },
    {
        "id": 16236,
        "skyddsrumsnr": "121888-7",
        "gatuadress": "Illerstigen 10-16",
        "kommunnamn": "Solna",
        "antalplatser": 262,
        "latitude": 18.02705657273567,
        "longitude": 59.383326498139574
    },
    {
        "id": 16237,
        "skyddsrumsnr": "121889-2",
        "gatuadress": "Kristinelundsvägen 4",
        "kommunnamn": "Solna",
        "antalplatser": 90,
        "latitude": 17.988964710311006,
        "longitude": 59.349393513710204
    },
    {
        "id": 16238,
        "skyddsrumsnr": "121890-8",
        "gatuadress": "Kristinelundsvägen 6",
        "kommunnamn": "Solna",
        "antalplatser": 90,
        "latitude": 17.98925376842073,
        "longitude": 59.34927904989015
    },
    {
        "id": 16239,
        "skyddsrumsnr": "121891-3",
        "gatuadress": "Kristinelundsvägen 20",
        "kommunnamn": "Solna",
        "antalplatser": 350,
        "latitude": 17.990446286534002,
        "longitude": 59.348433955379846
    },
    {
        "id": 16240,
        "skyddsrumsnr": "121892-9",
        "gatuadress": "Skytteholmsvägen 20",
        "kommunnamn": "Solna",
        "antalplatser": 82,
        "latitude": 18.000292237644707,
        "longitude": 59.35751716876522
    },
    {
        "id": 16241,
        "skyddsrumsnr": "121893-4",
        "gatuadress": "Hannebergsgatan 24",
        "kommunnamn": "Solna",
        "antalplatser": 124,
        "latitude": 18.001265403795333,
        "longitude": 59.35757563374622
    },
    {
        "id": 16242,
        "skyddsrumsnr": "121896-0",
        "gatuadress": "Kristinelundsvägen 38",
        "kommunnamn": "Solna",
        "antalplatser": 364,
        "latitude": 17.992455346122213,
        "longitude": 59.34747125070512
    },
    {
        "id": 16243,
        "skyddsrumsnr": "121897-6",
        "gatuadress": "Karolinagatan 7",
        "kommunnamn": "Solna",
        "antalplatser": 45,
        "latitude": 17.995081792125827,
        "longitude": 59.35231728655103
    },
    {
        "id": 16244,
        "skyddsrumsnr": "121901-6",
        "gatuadress": "Ekensbergsvägen 90",
        "kommunnamn": "Solna",
        "antalplatser": 168,
        "latitude": 17.990896734419206,
        "longitude": 59.361947597525656
    },
    {
        "id": 16245,
        "skyddsrumsnr": "121902-1",
        "gatuadress": "Ekensbergsvägen 90",
        "kommunnamn": "Solna",
        "antalplatser": 168,
        "latitude": 17.991196158605643,
        "longitude": 59.361949711525504
    },
    {
        "id": 16246,
        "skyddsrumsnr": "121903-7",
        "gatuadress": "Stråkvägen 11",
        "kommunnamn": "Solna",
        "antalplatser": 168,
        "latitude": 17.990315653035285,
        "longitude": 59.36254502346519
    },
    {
        "id": 16247,
        "skyddsrumsnr": "121904-2",
        "gatuadress": "Stråkvägen 11",
        "kommunnamn": "Solna",
        "antalplatser": 168,
        "latitude": 17.990315653035285,
        "longitude": 59.36254502346519
    },
    {
        "id": 16248,
        "skyddsrumsnr": "121905-8",
        "gatuadress": "Klippgatan 1-3",
        "kommunnamn": "Solna",
        "antalplatser": 133,
        "latitude": 18.006679769081632,
        "longitude": 59.35630958695033
    },
    {
        "id": 16249,
        "skyddsrumsnr": "121906-3",
        "gatuadress": "Hotellgatan 1-9",
        "kommunnamn": "Solna",
        "antalplatser": 240,
        "latitude": 18.001135834308993,
        "longitude": 59.35909726393278
    },
    {
        "id": 16250,
        "skyddsrumsnr": "121907-9",
        "gatuadress": "Sagagatan 15",
        "kommunnamn": "Solna",
        "antalplatser": 44,
        "latitude": 18.00082023080144,
        "longitude": 59.35711861018901
    },
    {
        "id": 16251,
        "skyddsrumsnr": "121908-4",
        "gatuadress": "Skytteholmsvägen 14",
        "kommunnamn": "Solna",
        "antalplatser": 150,
        "latitude": 18.00021764746437,
        "longitude": 59.35687188912144
    },
    {
        "id": 16252,
        "skyddsrumsnr": "121910-5",
        "gatuadress": "Skytteholmsvägen 10-12",
        "kommunnamn": "Solna",
        "antalplatser": 47,
        "latitude": 17.999922510810432,
        "longitude": 59.35651924114528
    },
    {
        "id": 16253,
        "skyddsrumsnr": "121917-3",
        "gatuadress": "Fläderstigen 5",
        "kommunnamn": "Solna",
        "antalplatser": 90,
        "latitude": 18.007084647850625,
        "longitude": 59.37698621607298
    },
    {
        "id": 16254,
        "skyddsrumsnr": "121918-9",
        "gatuadress": "Hannebergsgatan 22",
        "kommunnamn": "Solna",
        "antalplatser": 104,
        "latitude": 18.002185087551037,
        "longitude": 59.35762633758626
    },
    {
        "id": 16255,
        "skyddsrumsnr": "121919-4",
        "gatuadress": "Hannebergsgatan 20",
        "kommunnamn": "Solna",
        "antalplatser": 81,
        "latitude": 18.00309355186305,
        "longitude": 59.3577491821688
    },
    {
        "id": 16256,
        "skyddsrumsnr": "121921-5",
        "gatuadress": "Hannebergsgatan 18",
        "kommunnamn": "Solna",
        "antalplatser": 78,
        "latitude": 18.004153757675226,
        "longitude": 59.35779663377334
    },
    {
        "id": 16257,
        "skyddsrumsnr": "121922-0",
        "gatuadress": "Ankdammsgatan 42",
        "kommunnamn": "Solna",
        "antalplatser": 175,
        "latitude": 17.989166839373535,
        "longitude": 59.35769196761289
    },
    {
        "id": 16258,
        "skyddsrumsnr": "121923-6",
        "gatuadress": "Ankdammsgatan 40",
        "kommunnamn": "Solna",
        "antalplatser": 160,
        "latitude": 17.98928961195978,
        "longitude": 59.35708708764085
    },
    {
        "id": 16259,
        "skyddsrumsnr": "121924-1",
        "gatuadress": "Ankdammsgatan 38",
        "kommunnamn": "Solna",
        "antalplatser": 170,
        "latitude": 17.989591965784438,
        "longitude": 59.356523017749446
    },
    {
        "id": 16260,
        "skyddsrumsnr": "121925-7",
        "gatuadress": "Bredkilsbacken 1",
        "kommunnamn": "Solna",
        "antalplatser": 150,
        "latitude": 17.99505752053617,
        "longitude": 59.35084413153675
    },
    {
        "id": 16261,
        "skyddsrumsnr": "121926-2",
        "gatuadress": "Bredkilsbacken 1",
        "kommunnamn": "Solna",
        "antalplatser": 85,
        "latitude": 17.994832389983483,
        "longitude": 59.35088525053381
    },
    {
        "id": 16262,
        "skyddsrumsnr": "121927-8",
        "gatuadress": "Virebergsvägen 7",
        "kommunnamn": "Solna",
        "antalplatser": 98,
        "latitude": 17.99034011847676,
        "longitude": 59.36042376002442
    },
    {
        "id": 16263,
        "skyddsrumsnr": "121928-3",
        "gatuadress": "Virebergsvägen 5",
        "kommunnamn": "Solna",
        "antalplatser": 75,
        "latitude": 17.990960261356268,
        "longitude": 59.36067012355725
    },
    {
        "id": 16264,
        "skyddsrumsnr": "121929-9",
        "gatuadress": "Virebergsvägen 3",
        "kommunnamn": "Solna",
        "antalplatser": 92,
        "latitude": 17.992114694871546,
        "longitude": 59.36078739989136
    },
    {
        "id": 16265,
        "skyddsrumsnr": "121930-4",
        "gatuadress": "Virebergsvägen 1",
        "kommunnamn": "Solna",
        "antalplatser": 90,
        "latitude": 17.992975252674814,
        "longitude": 59.36096533184196
    },
    {
        "id": 16266,
        "skyddsrumsnr": "121932-5",
        "gatuadress": "Bygatan 39",
        "kommunnamn": "Solna",
        "antalplatser": 175,
        "latitude": 17.98538070591066,
        "longitude": 59.35025746612849
    },
    {
        "id": 16267,
        "skyddsrumsnr": "121933-0",
        "gatuadress": "Bygatan 33",
        "kommunnamn": "Solna",
        "antalplatser": 175,
        "latitude": 17.984752782033244,
        "longitude": 59.35072115260385
    },
    {
        "id": 16268,
        "skyddsrumsnr": "121934-6",
        "gatuadress": "Bygatan 27",
        "kommunnamn": "Solna",
        "antalplatser": 175,
        "latitude": 17.98421524423517,
        "longitude": 59.351012031456555
    },
    {
        "id": 16269,
        "skyddsrumsnr": "121935-1",
        "gatuadress": "Bygatan 21",
        "kommunnamn": "Solna",
        "antalplatser": 175,
        "latitude": 17.983677697244147,
        "longitude": 59.35130290815467
    },
    {
        "id": 16270,
        "skyddsrumsnr": "121936-7",
        "gatuadress": "Bygatan 15",
        "kommunnamn": "Solna",
        "antalplatser": 250,
        "latitude": 17.98297500179764,
        "longitude": 59.351516689327774
    },
    {
        "id": 16271,
        "skyddsrumsnr": "121937-2",
        "gatuadress": "Bygatan 7",
        "kommunnamn": "Solna",
        "antalplatser": 250,
        "latitude": 17.982492482600954,
        "longitude": 59.351833259079555
    },
    {
        "id": 16272,
        "skyddsrumsnr": "121938-8",
        "gatuadress": "Polhemsgatan 12",
        "kommunnamn": "Solna",
        "antalplatser": 106,
        "latitude": 17.994495680949058,
        "longitude": 59.35345401398841
    },
    {
        "id": 16273,
        "skyddsrumsnr": "121939-3",
        "gatuadress": "Storgatan 29",
        "kommunnamn": "Solna",
        "antalplatser": 44,
        "latitude": 17.994457047125973,
        "longitude": 59.35381434382758
    },
    {
        "id": 16274,
        "skyddsrumsnr": "121946-1",
        "gatuadress": "Regementsgatan 23",
        "kommunnamn": "Solna",
        "antalplatser": 153,
        "latitude": 18.00810644761716,
        "longitude": 59.3750036760214
    },
    {
        "id": 16275,
        "skyddsrumsnr": "121950-3",
        "gatuadress": "Berzeliusvägen 29",
        "kommunnamn": "Solna",
        "antalplatser": 23,
        "latitude": 18.029324735206504,
        "longitude": 59.34716735793027
    },
    {
        "id": 16276,
        "skyddsrumsnr": "121951-9",
        "gatuadress": "Karolinagatan 1-3",
        "kommunnamn": "Solna",
        "antalplatser": 58,
        "latitude": 17.996441321301536,
        "longitude": 59.35216921040874
    },
    {
        "id": 16277,
        "skyddsrumsnr": "121952-4",
        "gatuadress": "Emmylundsvägen 3",
        "kommunnamn": "Solna",
        "antalplatser": 104,
        "latitude": 18.001135610236798,
        "longitude": 59.34773886833558
    },
    {
        "id": 16278,
        "skyddsrumsnr": "121954-5",
        "gatuadress": "Emmylundsvägen 1",
        "kommunnamn": "Solna",
        "antalplatser": 157,
        "latitude": 18.001135610236798,
        "longitude": 59.34773886833558
    },
    {
        "id": 16279,
        "skyddsrumsnr": "121955-0",
        "gatuadress": "Jungfrudansen 34",
        "kommunnamn": "Solna",
        "antalplatser": 138,
        "latitude": 17.98349857125792,
        "longitude": 59.34826075218491
    },
    {
        "id": 16280,
        "skyddsrumsnr": "121956-6",
        "gatuadress": "Jungfrudansen 26",
        "kommunnamn": "Solna",
        "antalplatser": 138,
        "latitude": 17.984913265386925,
        "longitude": 59.347940797086096
    },
    {
        "id": 16281,
        "skyddsrumsnr": "121957-1",
        "gatuadress": "Göran Persons Väg 27-29",
        "kommunnamn": "Solna",
        "antalplatser": 241,
        "latitude": 17.98320861024581,
        "longitude": 59.35437787706156
    },
    {
        "id": 16282,
        "skyddsrumsnr": "121958-7",
        "gatuadress": "Göran Persons Väg 3",
        "kommunnamn": "Solna",
        "antalplatser": 181,
        "latitude": 17.98283500106857,
        "longitude": 59.35373045161944
    },
    {
        "id": 16283,
        "skyddsrumsnr": "121959-2",
        "gatuadress": "Göran Persons Väg 23",
        "kommunnamn": "Solna",
        "antalplatser": 80,
        "latitude": 17.98299785485931,
        "longitude": 59.3543827019021
    },
    {
        "id": 16284,
        "skyddsrumsnr": "121960-8",
        "gatuadress": "Göran Persons Väg 19",
        "kommunnamn": "Solna",
        "antalplatser": 306,
        "latitude": 17.98299785485931,
        "longitude": 59.3543827019021
    },
    {
        "id": 16285,
        "skyddsrumsnr": "121961-3",
        "gatuadress": "Västra Vägen 9 C",
        "kommunnamn": "Solna",
        "antalplatser": 166,
        "latitude": 18.004399979318045,
        "longitude": 59.35998356177354
    },
    {
        "id": 16286,
        "skyddsrumsnr": "121962-9",
        "gatuadress": "Västra Vägen 9 D",
        "kommunnamn": "Solna",
        "antalplatser": 149,
        "latitude": 18.004399979318045,
        "longitude": 59.35998356177354
    },
    {
        "id": 16287,
        "skyddsrumsnr": "121963-4",
        "gatuadress": "Blomgatan 3",
        "kommunnamn": "Solna",
        "antalplatser": 156,
        "latitude": 18.006508424568086,
        "longitude": 59.36033930995614
    },
    {
        "id": 16288,
        "skyddsrumsnr": "121965-5",
        "gatuadress": "Blomgatan 3",
        "kommunnamn": "Solna",
        "antalplatser": 178,
        "latitude": 18.006508424568086,
        "longitude": 59.36033930995614
    },
    {
        "id": 16289,
        "skyddsrumsnr": "121966-0",
        "gatuadress": "Jungfrudansen 17",
        "kommunnamn": "Solna",
        "antalplatser": 225,
        "latitude": 17.988601396469775,
        "longitude": 59.34726317207405
    },
    {
        "id": 16290,
        "skyddsrumsnr": "121967-6",
        "gatuadress": "Jungfrudansen 3",
        "kommunnamn": "Solna",
        "antalplatser": 170,
        "latitude": 17.986664181146644,
        "longitude": 59.34884420467632
    },
    {
        "id": 16291,
        "skyddsrumsnr": "121968-1",
        "gatuadress": "Jungfrudansen 11",
        "kommunnamn": "Solna",
        "antalplatser": 200,
        "latitude": 17.988067040405202,
        "longitude": 59.34838969609616
    },
    {
        "id": 16292,
        "skyddsrumsnr": "121969-7",
        "gatuadress": "Västra Vägen 5 A",
        "kommunnamn": "Solna",
        "antalplatser": 73,
        "latitude": 18.002463970027254,
        "longitude": 59.36098070466692
    },
    {
        "id": 16293,
        "skyddsrumsnr": "121970-2",
        "gatuadress": "Västra Vägen 11 A",
        "kommunnamn": "Solna",
        "antalplatser": 94,
        "latitude": 18.005458886982534,
        "longitude": 59.35961767373085
    },
    {
        "id": 16294,
        "skyddsrumsnr": "121971-8",
        "gatuadress": "Hagalundsgatan 26",
        "kommunnamn": "Solna",
        "antalplatser": 110,
        "latitude": 18.01283395404279,
        "longitude": 59.36160404365492
    },
    {
        "id": 16295,
        "skyddsrumsnr": "121972-3",
        "gatuadress": "Hagalundsgatan 26",
        "kommunnamn": "Solna",
        "antalplatser": 150,
        "latitude": 18.01283395404279,
        "longitude": 59.36160404365492
    },
    {
        "id": 16296,
        "skyddsrumsnr": "121973-9",
        "gatuadress": "Hagalundsgatan 36",
        "kommunnamn": "Solna",
        "antalplatser": 300,
        "latitude": 18.013838529231798,
        "longitude": 59.36122137079295
    },
    {
        "id": 16297,
        "skyddsrumsnr": "121974-4",
        "gatuadress": "Hagalundsgatan 30",
        "kommunnamn": "Solna",
        "antalplatser": 300,
        "latitude": 18.013838529231798,
        "longitude": 59.36122137079295
    },
    {
        "id": 16298,
        "skyddsrumsnr": "121976-5",
        "gatuadress": "Hagalundsgatan 46",
        "kommunnamn": "Solna",
        "antalplatser": 300,
        "latitude": 18.015136871129435,
        "longitude": 59.3609756714178
    },
    {
        "id": 16299,
        "skyddsrumsnr": "121977-0",
        "gatuadress": "Hagalundsgatan 42",
        "kommunnamn": "Solna",
        "antalplatser": 300,
        "latitude": 18.015310089949914,
        "longitude": 59.361142400012085
    },
    {
        "id": 16300,
        "skyddsrumsnr": "121978-6",
        "gatuadress": "Jungfrudansen 14",
        "kommunnamn": "Solna",
        "antalplatser": 200,
        "latitude": 17.98749079411008,
        "longitude": 59.347639097988754
    },
    {
        "id": 16301,
        "skyddsrumsnr": "121979-1",
        "gatuadress": "Jungfrudansen 10",
        "kommunnamn": "Solna",
        "antalplatser": 200,
        "latitude": 17.986720324731937,
        "longitude": 59.347881413036184
    },
    {
        "id": 16302,
        "skyddsrumsnr": "121980-7",
        "gatuadress": "Jungfrudansen 2",
        "kommunnamn": "Solna",
        "antalplatser": 200,
        "latitude": 17.985939939975502,
        "longitude": 59.34841150329111
    },
    {
        "id": 16303,
        "skyddsrumsnr": "121981-2",
        "gatuadress": "Jungfrudansen 56",
        "kommunnamn": "Solna",
        "antalplatser": 188,
        "latitude": 17.98016380272006,
        "longitude": 59.34955916741143
    },
    {
        "id": 16304,
        "skyddsrumsnr": "121982-8",
        "gatuadress": "Jungfrudansen 42",
        "kommunnamn": "Solna",
        "antalplatser": 188,
        "latitude": 17.9819163672982,
        "longitude": 59.348476693261624
    },
    {
        "id": 16305,
        "skyddsrumsnr": "121983-3",
        "gatuadress": "Jungfrudansen 48",
        "kommunnamn": "Solna",
        "antalplatser": 145,
        "latitude": 17.98084706346815,
        "longitude": 59.3489235036045
    },
    {
        "id": 16306,
        "skyddsrumsnr": "121984-9",
        "gatuadress": "Armégatan 38",
        "kommunnamn": "Solna",
        "antalplatser": 295,
        "latitude": 17.999148154774197,
        "longitude": 59.34894383701083
    },
    {
        "id": 16307,
        "skyddsrumsnr": "121985-4",
        "gatuadress": "Armegatan 38",
        "kommunnamn": "Solna",
        "antalplatser": 295,
        "latitude": 17.9987665854565,
        "longitude": 59.349006536165454
    },
    {
        "id": 16308,
        "skyddsrumsnr": "121987-5",
        "gatuadress": "Emmylundsvägen 12",
        "kommunnamn": "Solna",
        "antalplatser": 200,
        "latitude": 17.999065496664574,
        "longitude": 59.347409121082556
    },
    {
        "id": 16309,
        "skyddsrumsnr": "121988-0",
        "gatuadress": "Emmylundsvägen 4",
        "kommunnamn": "Solna",
        "antalplatser": 158,
        "latitude": 17.999858030226054,
        "longitude": 59.34741783365566
    },
    {
        "id": 16310,
        "skyddsrumsnr": "121989-6",
        "gatuadress": "Jungfrudansen 20",
        "kommunnamn": "Solna",
        "antalplatser": 138,
        "latitude": 17.985957045339614,
        "longitude": 59.3474046767838
    },
    {
        "id": 16311,
        "skyddsrumsnr": "121990-1",
        "gatuadress": "Hagalundsgatan 3",
        "kommunnamn": "Solna",
        "antalplatser": 200,
        "latitude": 18.008989332238844,
        "longitude": 59.36350806034539
    },
    {
        "id": 16312,
        "skyddsrumsnr": "121991-7",
        "gatuadress": "Hagalundsgatan 5",
        "kommunnamn": "Solna",
        "antalplatser": 370,
        "latitude": 18.008989332238844,
        "longitude": 59.36350806034539
    },
    {
        "id": 16313,
        "skyddsrumsnr": "121992-2",
        "gatuadress": "Hagalundsgatan 13",
        "kommunnamn": "Solna",
        "antalplatser": 200,
        "latitude": 18.010399559360483,
        "longitude": 59.3633317156441
    },
    {
        "id": 16314,
        "skyddsrumsnr": "121993-8",
        "gatuadress": "Hagalundsgatan 25-27",
        "kommunnamn": "Solna",
        "antalplatser": 290,
        "latitude": 18.01282951861816,
        "longitude": 59.36294307717568
    },
    {
        "id": 16315,
        "skyddsrumsnr": "121994-3",
        "gatuadress": "Hagalundsgatan 29-31",
        "kommunnamn": "Solna",
        "antalplatser": 300,
        "latitude": 18.01282951861816,
        "longitude": 59.36294307717568
    },
    {
        "id": 16316,
        "skyddsrumsnr": "121995-9",
        "gatuadress": "Hagalundsgatan 35-37",
        "kommunnamn": "Solna",
        "antalplatser": 290,
        "latitude": 18.014075291417274,
        "longitude": 59.36250091019756
    },
    {
        "id": 16317,
        "skyddsrumsnr": "121996-4",
        "gatuadress": "Hagalundsgatan 39-41",
        "kommunnamn": "Solna",
        "antalplatser": 300,
        "latitude": 18.014075291417274,
        "longitude": 59.36250091019756
    },
    {
        "id": 16318,
        "skyddsrumsnr": "121998-5",
        "gatuadress": "Västra Vägen 5 B",
        "kommunnamn": "Solna",
        "antalplatser": 149,
        "latitude": 18.002463970027254,
        "longitude": 59.36098070466692
    },
    {
        "id": 16319,
        "skyddsrumsnr": "121999-0",
        "gatuadress": "Västra Vägen 7 B",
        "kommunnamn": "Solna",
        "antalplatser": 178,
        "latitude": 18.003348185197655,
        "longitude": 59.36043015161621
    },
    {
        "id": 16320,
        "skyddsrumsnr": "122000-0",
        "gatuadress": "Västra Vägen 7 D",
        "kommunnamn": "Solna",
        "antalplatser": 95,
        "latitude": 18.003348185197655,
        "longitude": 59.36043015161621
    },
    {
        "id": 16321,
        "skyddsrumsnr": "122001-6",
        "gatuadress": "Västra Vägen 11 B",
        "kommunnamn": "Solna",
        "antalplatser": 172,
        "latitude": 18.005458886982534,
        "longitude": 59.35961767373085
    },
    {
        "id": 16322,
        "skyddsrumsnr": "122002-1",
        "gatuadress": "Storgatan 64",
        "kommunnamn": "Solna",
        "antalplatser": 200,
        "latitude": 17.986311082358558,
        "longitude": 59.349831774664246
    },
    {
        "id": 16323,
        "skyddsrumsnr": "122003-7",
        "gatuadress": "Storgatan 66",
        "kommunnamn": "Solna",
        "antalplatser": 340,
        "latitude": 17.986311082358558,
        "longitude": 59.349831774664246
    },
    {
        "id": 16324,
        "skyddsrumsnr": "122004-2",
        "gatuadress": "Jungfrudansen 64",
        "kommunnamn": "Solna",
        "antalplatser": 181,
        "latitude": 17.98120644943107,
        "longitude": 59.350011573272376
    },
    {
        "id": 16325,
        "skyddsrumsnr": "122005-8",
        "gatuadress": "Jungfrudansen 78",
        "kommunnamn": "Solna",
        "antalplatser": 192,
        "latitude": 17.980506655311626,
        "longitude": 59.350458910898254
    },
    {
        "id": 16326,
        "skyddsrumsnr": "122006-3",
        "gatuadress": "Jungfrudansen 88",
        "kommunnamn": "Solna",
        "antalplatser": 181,
        "latitude": 17.98191330776819,
        "longitude": 59.34964494395988
    },
    {
        "id": 16327,
        "skyddsrumsnr": "122007-9",
        "gatuadress": "Jungfrudansen 96",
        "kommunnamn": "Solna",
        "antalplatser": 193,
        "latitude": 17.98280520020043,
        "longitude": 59.349381906809334
    },
    {
        "id": 16328,
        "skyddsrumsnr": "122008-4",
        "gatuadress": "Kyrkbacken 5-7",
        "kommunnamn": "Solna",
        "antalplatser": 230,
        "latitude": 18.007637924291345,
        "longitude": 59.36255977060183
    },
    {
        "id": 16329,
        "skyddsrumsnr": "122010-5",
        "gatuadress": "Kyrkbacken 4-8",
        "kommunnamn": "Solna",
        "antalplatser": 293,
        "latitude": 18.006861216057946,
        "longitude": 59.36213737479815
    },
    {
        "id": 16330,
        "skyddsrumsnr": "122011-0",
        "gatuadress": "Kyrkbacken 31-35",
        "kommunnamn": "Solna",
        "antalplatser": 293,
        "latitude": 18.008114187281514,
        "longitude": 59.361775974290566
    },
    {
        "id": 16331,
        "skyddsrumsnr": "122012-6",
        "gatuadress": "Hagalundsgatan 12-14",
        "kommunnamn": "Solna",
        "antalplatser": 370,
        "latitude": 18.009891566796387,
        "longitude": 59.36177088090374
    },
    {
        "id": 16332,
        "skyddsrumsnr": "122013-1",
        "gatuadress": "Hagalundsgatan 10",
        "kommunnamn": "Solna",
        "antalplatser": 200,
        "latitude": 18.01008550977023,
        "longitude": 59.36197308187877
    },
    {
        "id": 16333,
        "skyddsrumsnr": "122014-7",
        "gatuadress": "Hagalundsgatan 22-24",
        "kommunnamn": "Solna",
        "antalplatser": 372,
        "latitude": 18.011244248030962,
        "longitude": 59.36154193827908
    },
    {
        "id": 16334,
        "skyddsrumsnr": "122015-2",
        "gatuadress": "Hagalundsgatan 18",
        "kommunnamn": "Solna",
        "antalplatser": 200,
        "latitude": 18.011567450131672,
        "longitude": 59.36201073368673
    },
    {
        "id": 16335,
        "skyddsrumsnr": "122016-8",
        "gatuadress": "Jonstorpsvägen 14",
        "kommunnamn": "Solna",
        "antalplatser": 175,
        "latitude": 17.97860373942717,
        "longitude": 59.3522367219067
    },
    {
        "id": 16336,
        "skyddsrumsnr": "122017-3",
        "gatuadress": "Jonstorpsvägen 6",
        "kommunnamn": "Solna",
        "antalplatser": 190,
        "latitude": 17.978168373397985,
        "longitude": 59.35188723389937
    },
    {
        "id": 16337,
        "skyddsrumsnr": "122018-9",
        "gatuadress": "Johan Enbergsväg 20 Och 28",
        "kommunnamn": "Solna",
        "antalplatser": 334,
        "latitude": 18.003192662597314,
        "longitude": 59.347323038825934
    },
    {
        "id": 16338,
        "skyddsrumsnr": "122019-4",
        "gatuadress": "Ingentinggatan 2",
        "kommunnamn": "Solna",
        "antalplatser": 97,
        "latitude": 18.001130887176178,
        "longitude": 59.35346310969195
    },
    {
        "id": 16339,
        "skyddsrumsnr": "122027-8",
        "gatuadress": "Gårdsvägen 8",
        "kommunnamn": "Solna",
        "antalplatser": 18,
        "latitude": 18.011948181102326,
        "longitude": 59.36689936400137
    },
    {
        "id": 16340,
        "skyddsrumsnr": "122028-3",
        "gatuadress": "Gårdsvägen 10 a-b",
        "kommunnamn": "Solna",
        "antalplatser": 193,
        "latitude": 18.01160229751171,
        "longitude": 59.36716795368925
    },
    {
        "id": 16341,
        "skyddsrumsnr": "122032-5",
        "gatuadress": "Tvärvägen 1",
        "kommunnamn": "Solna",
        "antalplatser": 105,
        "latitude": 17.980000929770043,
        "longitude": 59.3661600138689
    },
    {
        "id": 16342,
        "skyddsrumsnr": "122033-0",
        "gatuadress": "Tvärvägen 3",
        "kommunnamn": "Solna",
        "antalplatser": 105,
        "latitude": 17.97972348683501,
        "longitude": 59.36580691786577
    },
    {
        "id": 16343,
        "skyddsrumsnr": "122034-6",
        "gatuadress": "Tvärvägen 5",
        "kommunnamn": "Solna",
        "antalplatser": 125,
        "latitude": 17.97941012551562,
        "longitude": 59.36544565645745
    },
    {
        "id": 16344,
        "skyddsrumsnr": "122035-1",
        "gatuadress": "Råsundavägen 100",
        "kommunnamn": "Solna",
        "antalplatser": 134,
        "latitude": 17.998706037441174,
        "longitude": 59.36586578368553
    },
    {
        "id": 16345,
        "skyddsrumsnr": "122037-2",
        "gatuadress": "Bokvägen 8",
        "kommunnamn": "Solna",
        "antalplatser": 28,
        "latitude": 17.9822383239222,
        "longitude": 59.36437454262755
    },
    {
        "id": 16346,
        "skyddsrumsnr": "122038-8",
        "gatuadress": "Bokvägen 2",
        "kommunnamn": "Solna",
        "antalplatser": 29,
        "latitude": 17.982475068638383,
        "longitude": 59.36406360148189
    },
    {
        "id": 16347,
        "skyddsrumsnr": "122045-6",
        "gatuadress": "Släggbacken 3",
        "kommunnamn": "Solna",
        "antalplatser": 148,
        "latitude": 17.991410981980433,
        "longitude": 59.35199724047495
    },
    {
        "id": 16348,
        "skyddsrumsnr": "122046-1",
        "gatuadress": "Släggbacken 5-7",
        "kommunnamn": "Solna",
        "antalplatser": 252,
        "latitude": 17.991410981980433,
        "longitude": 59.35199724047495
    },
    {
        "id": 16349,
        "skyddsrumsnr": "122047-7",
        "gatuadress": "Bredkilsbacken 10-12",
        "kommunnamn": "Solna",
        "antalplatser": 335,
        "latitude": 17.99228725182341,
        "longitude": 59.35135708311744
    },
    {
        "id": 16350,
        "skyddsrumsnr": "122048-2",
        "gatuadress": "Släggbacken 6",
        "kommunnamn": "Solna",
        "antalplatser": 162,
        "latitude": 17.99105124723674,
        "longitude": 59.350909202045045
    },
    {
        "id": 16351,
        "skyddsrumsnr": "122049-8",
        "gatuadress": "Släggbacken 4",
        "kommunnamn": "Solna",
        "antalplatser": 200,
        "latitude": 17.99105124723674,
        "longitude": 59.350909202045045
    },
    {
        "id": 16352,
        "skyddsrumsnr": "122055-0",
        "gatuadress": "Hasselstigen 7",
        "kommunnamn": "Solna",
        "antalplatser": 82,
        "latitude": 17.98771239214174,
        "longitude": 59.367969377924986
    },
    {
        "id": 16353,
        "skyddsrumsnr": "122056-6",
        "gatuadress": "Hasselstigen 5",
        "kommunnamn": "Solna",
        "antalplatser": 78,
        "latitude": 17.987327857971795,
        "longitude": 59.367600779535884
    },
    {
        "id": 16354,
        "skyddsrumsnr": "122057-1",
        "gatuadress": "Råsundavägen 134",
        "kommunnamn": "Solna",
        "antalplatser": 58,
        "latitude": 17.98698083781857,
        "longitude": 59.36725827842879
    },
    {
        "id": 16355,
        "skyddsrumsnr": "122058-7",
        "gatuadress": "Ankdammsgatan 31",
        "kommunnamn": "Solna",
        "antalplatser": 105,
        "latitude": 17.98805753650145,
        "longitude": 59.35728607933427
    },
    {
        "id": 16356,
        "skyddsrumsnr": "122059-2",
        "gatuadress": "Ankdammsgatan 29",
        "kommunnamn": "Solna",
        "antalplatser": 100,
        "latitude": 17.98809976467362,
        "longitude": 59.35736598523036
    },
    {
        "id": 16357,
        "skyddsrumsnr": "122060-8",
        "gatuadress": "Ankdammsgatan 27",
        "kommunnamn": "Solna",
        "antalplatser": 105,
        "latitude": 17.988434321681144,
        "longitude": 59.35656754333722
    },
    {
        "id": 16358,
        "skyddsrumsnr": "122061-3",
        "gatuadress": "Ankdammsgatan 25",
        "kommunnamn": "Solna",
        "antalplatser": 100,
        "latitude": 17.988434321681144,
        "longitude": 59.35656754333722
    },
    {
        "id": 16359,
        "skyddsrumsnr": "122063-4",
        "gatuadress": "Björnstigen 20",
        "kommunnamn": "Solna",
        "antalplatser": 92,
        "latitude": 18.0343711551961,
        "longitude": 59.38101775088878
    },
    {
        "id": 16360,
        "skyddsrumsnr": "122065-5",
        "gatuadress": "Björnstigen 12",
        "kommunnamn": "Solna",
        "antalplatser": 86,
        "latitude": 18.0343711551961,
        "longitude": 59.38101775088878
    },
    {
        "id": 16361,
        "skyddsrumsnr": "122066-0",
        "gatuadress": "Björnstigen 6",
        "kommunnamn": "Solna",
        "antalplatser": 125,
        "latitude": 18.033383012163352,
        "longitude": 59.38139120738094
    },
    {
        "id": 16362,
        "skyddsrumsnr": "122067-6",
        "gatuadress": "Björnstigen 24",
        "kommunnamn": "Solna",
        "antalplatser": 41,
        "latitude": 18.034912197721216,
        "longitude": 59.38155331398383
    },
    {
        "id": 16363,
        "skyddsrumsnr": "122068-1",
        "gatuadress": "Björnstigen 26",
        "kommunnamn": "Solna",
        "antalplatser": 142,
        "latitude": 18.034912197721216,
        "longitude": 59.38155331398383
    },
    {
        "id": 16364,
        "skyddsrumsnr": "122069-7",
        "gatuadress": "Björnstigen 36",
        "kommunnamn": "Solna",
        "antalplatser": 92,
        "latitude": 18.034912197721216,
        "longitude": 59.38155331398383
    },
    {
        "id": 16365,
        "skyddsrumsnr": "122070-2",
        "gatuadress": "Björnstigen 40",
        "kommunnamn": "Solna",
        "antalplatser": 100,
        "latitude": 18.034912197721216,
        "longitude": 59.38155331398383
    },
    {
        "id": 16366,
        "skyddsrumsnr": "122071-8",
        "gatuadress": "Rådjursstigen 11",
        "kommunnamn": "Solna",
        "antalplatser": 45,
        "latitude": 18.035974424972895,
        "longitude": 59.38062996305389
    },
    {
        "id": 16367,
        "skyddsrumsnr": "122072-3",
        "gatuadress": "Rådjursstigen 7",
        "kommunnamn": "Solna",
        "antalplatser": 129,
        "latitude": 18.035504032111472,
        "longitude": 59.381081239728985
    },
    {
        "id": 16368,
        "skyddsrumsnr": "122073-9",
        "gatuadress": "Rådjursstigen 1",
        "kommunnamn": "Solna",
        "antalplatser": 92,
        "latitude": 18.035504032111472,
        "longitude": 59.381081239728985
    },
    {
        "id": 16369,
        "skyddsrumsnr": "122074-4",
        "gatuadress": "Kapellgatan 4-6",
        "kommunnamn": "Solna",
        "antalplatser": 55,
        "latitude": 17.999805869437278,
        "longitude": 59.3522086125858
    },
    {
        "id": 16370,
        "skyddsrumsnr": "122076-5",
        "gatuadress": "Kapellgatan 2",
        "kommunnamn": "Solna",
        "antalplatser": 36,
        "latitude": 17.999276793672774,
        "longitude": 59.35199614036985
    },
    {
        "id": 16371,
        "skyddsrumsnr": "122077-0",
        "gatuadress": "Regementsgatan 27",
        "kommunnamn": "Solna",
        "antalplatser": 91,
        "latitude": 18.00642090553285,
        "longitude": 59.37525822673967
    },
    {
        "id": 16372,
        "skyddsrumsnr": "122078-6",
        "gatuadress": "Hotellgatan 11",
        "kommunnamn": "Solna",
        "antalplatser": 158,
        "latitude": 18.000177255323827,
        "longitude": 59.35980227718517
    },
    {
        "id": 16373,
        "skyddsrumsnr": "122080-7",
        "gatuadress": "Sjövägen 2-4",
        "kommunnamn": "Solna",
        "antalplatser": 138,
        "latitude": 17.99433025961625,
        "longitude": 59.369147444234045
    },
    {
        "id": 16374,
        "skyddsrumsnr": "122081-2",
        "gatuadress": "Gårdsvägen 2-4",
        "kommunnamn": "Solna",
        "antalplatser": 125,
        "latitude": 18.013348433757525,
        "longitude": 59.365815622516585
    },
    {
        "id": 16375,
        "skyddsrumsnr": "122082-8",
        "gatuadress": "Vintervägen 37",
        "kommunnamn": "Solna",
        "antalplatser": 44,
        "latitude": 17.996457544481736,
        "longitude": 59.36851446421115
    },
    {
        "id": 16376,
        "skyddsrumsnr": "122083-3",
        "gatuadress": "Vintervägen 35",
        "kommunnamn": "Solna",
        "antalplatser": 44,
        "latitude": 17.99579004618171,
        "longitude": 59.368332115066124
    },
    {
        "id": 16377,
        "skyddsrumsnr": "122084-9",
        "gatuadress": "Vintervägen 41",
        "kommunnamn": "Solna",
        "antalplatser": 172,
        "latitude": 17.99592616154298,
        "longitude": 59.36887713493462
    },
    {
        "id": 16378,
        "skyddsrumsnr": "122085-4",
        "gatuadress": "Polhemsgatan 1",
        "kommunnamn": "Solna",
        "antalplatser": 50,
        "latitude": 17.99660584768488,
        "longitude": 59.353037074525126
    },
    {
        "id": 16379,
        "skyddsrumsnr": "122087-5",
        "gatuadress": "Huvudstagatan 12",
        "kommunnamn": "Solna",
        "antalplatser": 92,
        "latitude": 17.99670188932724,
        "longitude": 59.352729339747704
    },
    {
        "id": 16380,
        "skyddsrumsnr": "122088-0",
        "gatuadress": "Polhemsgatan 5",
        "kommunnamn": "Solna",
        "antalplatser": 36,
        "latitude": 17.995588829939404,
        "longitude": 59.35307843150711
    },
    {
        "id": 16381,
        "skyddsrumsnr": "122089-6",
        "gatuadress": "Bergstigen 9",
        "kommunnamn": "Solna",
        "antalplatser": 54,
        "latitude": 17.98381434448309,
        "longitude": 59.36528200016314
    },
    {
        "id": 16382,
        "skyddsrumsnr": "122090-1",
        "gatuadress": "Bergstigen 7",
        "kommunnamn": "Solna",
        "antalplatser": 89,
        "latitude": 17.9845755389126,
        "longitude": 59.36512978134878
    },
    {
        "id": 16383,
        "skyddsrumsnr": "122091-7",
        "gatuadress": "Bergstigen 5",
        "kommunnamn": "Solna",
        "antalplatser": 54,
        "latitude": 17.985217126564077,
        "longitude": 59.364818549552474
    },
    {
        "id": 16384,
        "skyddsrumsnr": "122092-2",
        "gatuadress": "Bangatan 3",
        "kommunnamn": "Solna",
        "antalplatser": 68,
        "latitude": 17.999515233864937,
        "longitude": 59.35449776523795
    },
    {
        "id": 16385,
        "skyddsrumsnr": "122093-8",
        "gatuadress": "Bangatan 1 A-b",
        "kommunnamn": "Solna",
        "antalplatser": 113,
        "latitude": 18.000181034031858,
        "longitude": 59.35446446519376
    },
    {
        "id": 16386,
        "skyddsrumsnr": "122094-3",
        "gatuadress": "Råsundavägen 70",
        "kommunnamn": "Solna",
        "antalplatser": 54,
        "latitude": 18.004839618425578,
        "longitude": 59.36614686341546
    },
    {
        "id": 16387,
        "skyddsrumsnr": "122095-9",
        "gatuadress": "Råsundavägen 68",
        "kommunnamn": "Solna",
        "antalplatser": 64,
        "latitude": 18.005627934007936,
        "longitude": 59.3659040343822
    },
    {
        "id": 16388,
        "skyddsrumsnr": "122096-4",
        "gatuadress": "Råsundavägen 74",
        "kommunnamn": "Solna",
        "antalplatser": 84,
        "latitude": 18.00351617603813,
        "longitude": 59.36650985331277
    },
    {
        "id": 16389,
        "skyddsrumsnr": "122098-5",
        "gatuadress": "Råsundavägen 72",
        "kommunnamn": "Solna",
        "antalplatser": 78,
        "latitude": 18.004100824598567,
        "longitude": 59.366352601774736
    },
    {
        "id": 16390,
        "skyddsrumsnr": "122099-0",
        "gatuadress": "Klippgatan 24 A-b",
        "kommunnamn": "Solna",
        "antalplatser": 365,
        "latitude": 18.001003813081002,
        "longitude": 59.356009095550384
    },
    {
        "id": 16391,
        "skyddsrumsnr": "122100-4",
        "gatuadress": "Klippgatan 20 A-B",
        "kommunnamn": "Solna",
        "antalplatser": 365,
        "latitude": 18.001927416200864,
        "longitude": 59.35610464070078
    },
    {
        "id": 16392,
        "skyddsrumsnr": "122102-5",
        "gatuadress": "Klippgatan 16 A-b",
        "kommunnamn": "Solna",
        "antalplatser": 365,
        "latitude": 18.003004463824205,
        "longitude": 59.35594503302115
    },
    {
        "id": 16393,
        "skyddsrumsnr": "122103-0",
        "gatuadress": "Klippgatan 12 A-b",
        "kommunnamn": "Solna",
        "antalplatser": 365,
        "latitude": 18.00400704707159,
        "longitude": 59.35613759027029
    },
    {
        "id": 16394,
        "skyddsrumsnr": "122104-6",
        "gatuadress": "Klippgatan 8 A-b",
        "kommunnamn": "Solna",
        "antalplatser": 365,
        "latitude": 18.004898707259397,
        "longitude": 59.356269795257525
    },
    {
        "id": 16395,
        "skyddsrumsnr": "122105-1",
        "gatuadress": "Skytteholmsvägen 2",
        "kommunnamn": "Solna",
        "antalplatser": 395,
        "latitude": 17.999894793926114,
        "longitude": 59.35620536682176
    },
    {
        "id": 16396,
        "skyddsrumsnr": "122106-7",
        "gatuadress": "Björnstigen 105",
        "kommunnamn": "Solna",
        "antalplatser": 93,
        "latitude": 18.0346232204484,
        "longitude": 59.38226096296694
    },
    {
        "id": 16397,
        "skyddsrumsnr": "122107-2",
        "gatuadress": "Björnstigen 117",
        "kommunnamn": "Solna",
        "antalplatser": 72,
        "latitude": 18.035149918740338,
        "longitude": 59.3828328039727
    },
    {
        "id": 16398,
        "skyddsrumsnr": "122108-8",
        "gatuadress": "Söderberga Gårdsväg 97",
        "kommunnamn": "Stockholm",
        "antalplatser": 150,
        "latitude": 17.899391690677042,
        "longitude": 59.36285623355411
    },
    {
        "id": 16399,
        "skyddsrumsnr": "122109-3",
        "gatuadress": "Råckstavägen 100",
        "kommunnamn": "Stockholm",
        "antalplatser": 300,
        "latitude": 17.894796332717377,
        "longitude": 59.363048236796736
    },
    {
        "id": 16400,
        "skyddsrumsnr": "122110-9",
        "gatuadress": "Sorterargatan 8",
        "kommunnamn": "Stockholm",
        "antalplatser": 200,
        "latitude": 17.857219217243195,
        "longitude": 59.37208117819789
    },